Id,job-id,type,name,address,latitude,longitude,service-duration,start-time,end-time,quantity,required-skills,,Level
106.0_0_B1,,D,RITCHIE,98 ST-77 AVE,53.51372262,-113.4813008,0.00400462962963,0d 06:00:00,9d 14:45:00,1,neighbourhood,,B1
181.0_0_B1,,D,CAPILANO,109 AVE-65 ST,53.5572473,-113.4252652,0.022916666666667,0d 06:00:00,9d 14:45:00,1,neighbourhood,,B1
207.0_0_B1,,D,ELLERSLIE,N/S & C ELLERSLIE RD: 91 ST - EDWARDS DRI,53.4249867,-113.4648967,0.006643518518519,0d 06:00:00,9d 14:45:00,1,roadway,,B1
270.0_0_B1,,D,KENILWORTH,89 Ave & 71 St,53.52290707,-113.4354382,0.093958333333333,0d 06:00:00,9d 14:45:00,1,neighbourhood,,B1
309.0_0_B1,,D,FOREST HEIGHTS,82 ST-103 AVE,53.54472687,-113.4532601,0.035,0d 06:00:00,9d 14:45:00,1,neighbourhood,,B1
382.0_0_B1,,D,BONNIE DOON,93 ST-92 AVE,53.52806581,-113.4707322,0.004583333333333,0d 06:00:00,9d 14:45:00,1,neighbourhood,,B1
511_0_0_B1,,D,CLOVERDALE,85 ST-STRATHEARN DRIVE,53.53669821,-113.4618982,0.055713734567901,8d 06:00:00,8d 14:45:00,1,neighbourhood,,B1
511_1_0_B1,,D,CLOVERDALE,85 ST-STRATHEARN DRIVE,53.53669821,-113.4618982,0.055713734567901,8d 06:00:00,8d 14:45:00,1,neighbourhood,,B1
511_2_0_B1,,D,CLOVERDALE,85 ST-STRATHEARN DRIVE,53.53669821,-113.4618982,0.055713734567901,8d 06:00:00,8d 14:45:00,1,neighbourhood,,B1
568.0_0_B1,,D,GAINER INDUSTRIAL,50 ST BTWN 76 & 82 AVE,53.51698107,-113.4182013,0.008229166666667,0d 06:00:00,9d 14:45:00,1,neighbourhood,,B1
590.0_0_B1,,D,GOLD BAR,47 ST & 106B AVE,53.55320893,-113.4135622,0.031875,0d 06:00:00,9d 14:45:00,1,neighbourhood,,B1
596.0_0_B1,,D,PYLYPOW INDUSTRIAL,50 St: 70 Ave - Whitemud Drive Whitemud Drive,53.49914123,-113.4180896,0.01849537037037,0d 06:00:00,9d 14:45:00,1,roadway,,B1
597.0_0_B1,,D,TWEDDLE PLACE,W/S 76 ST: 38 AVE - WHITEMUD DRIVE,53.48042908,-113.4525123,0.049872685185185,0d 06:00:00,9d 14:45:00,1,roadway,,B1
643.0_0_B1,,D,KING EDWARD PARK,77 AVE-73 ST,53.51372686,-113.4410012,0.004108796296296,0d 06:00:00,9d 14:45:00,1,neighbourhood,,B1
777.0_0_B1,,D,CRAWFORD PLAINS,Road Allowance,53.44096431,-113.3942473,0.041041666666667,0d 06:00:00,9d 14:45:00,1,roadway,,B1
789.0_0_B1,,D,TIPASKAN,NORTH SIDE 28 AVE & LAKEWOOD RD WEST -,53.45895751,-113.4568045,0.007141203703704,0d 06:00:00,9d 14:45:00,1,roadway,,B1
883.0_0_B1,,D,CLOVERDALE,9812 96A Street NW,53.53870576,-113.4795739,0.145833333333333,0d 06:00:00,9d 14:45:00,1,neighbourhood,,B1
947.0_0_B1,,D,ARGYLL,ARGYLL RD N/S BTWN 86 ST & 83 ST,53.50190593,-113.4560504,0.012916666666667,0d 06:00:00,9d 14:45:00,1,neighbourhood,,B1
976.0_0_B1,,D,BISSET,SOUTH SIDE 23 AVE BTWN 38-34 ST,53.45366325,-113.3962258,0.026458333333333,0d 06:00:00,9d 14:45:00,1,roadway,,B1
979.0_0_B1,,D,MEYONOHK,WEST SIDE MILLWOODS RD-BTWN-28-23 AVE,53.45526058,-113.448311,0.014293981481482,0d 06:00:00,9d 14:45:00,1,roadway,,B1
996.0_0_B1,,D,GREENVIEW,GREENOCH CRESCENT-W 50 ST-GOLF COURS,53.47794898,-113.4207306,0.0125,0d 06:00:00,9d 14:45:00,1,neighbourhood,,B1
1313.0_0_B1,,D,LARKSPUR,37-38 AVE & 32-34 ST,53.47213596,-113.3919408,0.033333333333333,0d 06:00:00,9d 14:45:00,1,neighbourhood,,B1
1450.0_0_B1,,D,RICHFIELD,BTWN-85-91 ST,53.46912852,-113.4624634,0.045150462962963,0d 06:00:00,9d 14:45:00,1,neighbourhood,,B1
1493.0_0_B1,,D,MENISA,EAST OF 80 ST & SOUTH OF 10 AVE,53.43871656,-113.4530145,0.046666666666667,0d 06:00:00,9d 14:45:00,1,neighbourhood,,B1
1508.0_0_B1,,D,STRATHCONA,85 AVE-104 ST,53.52136465,-113.4969562,0.003483796296296,0d 06:00:00,9d 14:45:00,1,neighbourhood,,B1
1612.0_0_B1,,D,MICHAELS PARK,MILLBOURNE ROAD E-70 ST,53.4792581,-113.4489091,0.15625,0d 06:00:00,9d 14:45:00,1,neighbourhood,,B1
1623.0_0_B1,,D,BISSET,NORTH SIDE 23 AVE-BTWN MILLWOODS RD E- 38 ST,53.45485526,-113.4033495,0.0375,0d 06:00:00,9d 14:45:00,1,roadway,,B1
1778.0_0_B1,,D,SAKAW,11 AVE-58 ST,53.44264997,-113.4290041,0.092291666666667,0d 06:00:00,9d 14:45:00,1,neighbourhood,,B1
1814.0_0_B1,,D,LARKSPUR,43A AVE - WHITEMUD DRIVE WEST OF 23 ST,53.48249405,-113.3806965,0.064583333333333,0d 06:00:00,9d 14:45:00,1,neighbourhood,,B1
1825.0_0_B1,,D,MILL CREEK RAVINE SOUTH,76 AVE & 89 - 95 ST,53.51228056,-113.4682563,0.009525462962963,0d 06:00:00,9d 14:45:00,1,neighbourhood,,B1
1837.0_0_B1,,D,SATOO,SOUTH SIDE&C 23 AVE-BTWN 91-85 ST,53.45169814,-113.4632398,0.007372685185185,0d 06:00:00,9d 14:45:00,1,roadway,,B1
1854.0_0_B1,,D,AVONMORE,80 ST-76 AVE,53.51080393,-113.4492502,0.06130787037037,0d 06:00:00,9d 14:45:00,1,neighbourhood,,B1
1867_0_0_B1,,D,ARGYLL,88 ST-69 AVE,53.50596204,-113.4637143,0.097928240740741,8d 06:00:00,8d 14:45:00,1,neighbourhood,,B1
1867_1_0_B1,,D,ARGYLL,88 ST-69 AVE,53.50596204,-113.4637143,0.097928240740741,8d 06:00:00,8d 14:45:00,1,neighbourhood,,B1
1867_2_0_B1,,D,ARGYLL,88 ST-69 AVE,53.50596204,-113.4637143,0.097928240740741,8d 06:00:00,8d 14:45:00,1,neighbourhood,,B1
1868.0_0_B1,,D,MILL CREEK RAVINE SOUTH,70-75 AVE - 85ST TO RAVINE,53.50873972,-113.4609116,0.034189814814815,0d 06:00:00,9d 14:45:00,1,neighbourhood,,B1
1870.0_0_B1,,D,CORONET ADDITION INDUSTRIAL,ISLAND NE CORNER 75 ST & ARGYLE RD.,53.50977333,-113.4432727,0.00994212962963,0d 06:00:00,9d 14:45:00,1,neighbourhood,,B1
1889.0_0_B1,,D,TIPASKAN,WS/C 91 ST BTWN 28 & 34 AVE,53.46193542,-113.4670981,0.053541666666667,0d 06:00:00,9d 14:45:00,1,roadway,,B1
1905.0_0_B1,,D,MCINTYRE INDUSTRIAL,91 ST BTWN 51 AVE & WHITEMUD DRIVE,53.48513048,-113.4663823,0.038043981481482,0d 06:00:00,9d 14:45:00,1,roadway,,B1
1980.0_0_B1,,D,DALY GROVE,WEST SIDE 34 ST 18-23 AVE & WEST SIDE 34 ST 16A - 18 AVE,53.44893668,-113.3941282,0.019166666666667,0d 06:00:00,9d 14:45:00,1,roadway,,B1
2016.0_0_B1,,D,GOLD BAR,EAST OF 42 AVE BTWN 102 & 106B AVE,53.54874589,-113.4057399,0.016608796296296,0d 06:00:00,9d 14:45:00,1,neighbourhood,,B1
2085.0_0_B1,,D,ARGYLL,ARGYLL RD N/S BTWN 91 ST & 86 ST,53.50013044,-113.4623617,0.005833333333333,0d 06:00:00,9d 14:45:00,1,neighbourhood,,B1
2156.0_0_B1,,D,MENISA,KNOTTWOOD ROAD S-75 ST,53.44317506,-113.448125,0.017141203703704,0d 06:00:00,9d 14:45:00,1,neighbourhood,,B1
2165.0_0_B1,,D,MORRIS INDUSTRIAL,BTWN 75 & 34 ST INCLUDING 82 AVE - 71 ST,53.51663277,-113.4035534,0.019583333333333,0d 06:00:00,9d 14:45:00,1,roadway,,B1
2193.0_0_B1,,D,MILL CREEK RAVINE SOUTH,EAST 98 ST - RAVINE & 92 AVE,53.52148967,-113.4750752,0.017708333333333,0d 06:00:00,9d 14:45:00,1,neighbourhood,,B1
2194.0_0_B1,,D,HAZELDEAN,NORTH 63-66 AVE - 89-92 ST,53.50096985,-113.4677927,0.033229166666667,0d 06:00:00,9d 14:45:00,1,neighbourhood,,B1
2217.0_0_B1,,D,MILL CREEK RAVINE NORTH,95 ST-88 AVE,53.5254877,-113.4743503,0.075150462962963,0d 06:00:00,9d 14:45:00,1,neighbourhood,,B1
2233.0_0_B1,,D,LEE RIDGE,SOUTH SIDE/C 34 AVE BTWN MILLWOODS RD & 66 ST,53.46495912,-113.4432916,0.01875,0d 06:00:00,9d 14:45:00,1,roadway,,B1
2250.0_0_B1,,D,HILLVIEW,54-58 ST & 34 AVE-38 AVE,53.46914599,-113.4233464,0.007025462962963,0d 06:00:00,9d 14:45:00,1,neighbourhood,,B1
2255.0_0_B1,,D,MILL WOODS TOWN CENTRE,SOUTH SIDE/C 23 AVE-BTWN 66-50 ST,53.4537107,-113.4285839,0.022083333333333,0d 06:00:00,9d 14:45:00,1,roadway,,B1
2261.0_0_B1,,D,MILL CREEK RAVINE NORTH,98 AVE-CONNORS ROAD-99 ST,53.53647744,-113.4816691,0.10525462962963,0d 06:00:00,9d 14:45:00,1,neighbourhood,,B1
2270.0_0_B1,,D,WILD ROSE,W/S 17 St. South of 38 Ave,53.47390517,-113.3689558,0.116041666666667,0d 06:00:00,9d 14:45:00,1,roadway,,B1
2339.0_0_B1,,D,POLLARD MEADOWS,43 ST BTWN MILLWOODS RD & 17 AVE,53.44391005,-113.4070047,0.004791666666667,0d 06:00:00,9d 14:45:00,1,neighbourhood,,B1
2380.0_0_B1,,D,CAPILANO,109 AVE-46 ST,53.55622078,-113.4142713,0.004583333333333,0d 06:00:00,9d 14:45:00,1,neighbourhood,,B1
2386.0_0_B1,,D,FOREST HEIGHTS,WEST SIDE 75 ST-BTWN-98-101 AVE,53.5388941,-113.4436549,0.01125,0d 06:00:00,9d 14:45:00,1,neighbourhood,,B1
2391.0_0_B1,,D,CLOVERDALE,96A ST - CONNORS ROAD,53.53403064,-113.479064,0.097395833333333,0d 06:00:00,9d 14:45:00,1,neighbourhood,,B1
2409.0_0_B1,,D,HAZELDEAN,98 ST/70-72 AVE + P.U.L. S/W 99ST&73AVE,53.50761008,-113.4843723,0.0425,0d 06:00:00,9d 14:45:00,1,neighbourhood,,B1
2410.0_0_B1,,D,RITCHIE,98 ST-79 AVE,53.51560934,-113.4812774,0.004166666666667,0d 06:00:00,9d 14:45:00,1,neighbourhood,,B1
2448.0_0_B1,,D,EKOTA,KNOTTWOOD RD E-19 AVE,53.44899765,-113.441916,0.057037037037037,0d 06:00:00,9d 14:45:00,1,neighbourhood,,B1
2469.0_0_B1,,D,STRATHCONA INDUSTRIAL PARK,WS/C 91 ST BTWN 34 & 39 AVE,53.46979343,-113.467082,0.10625,0d 06:00:00,9d 14:45:00,1,roadway,,B1
2492.0_0_B1,,D,BISSET,NORTH OF 28 AVE-BTWN MILLWOODS RD-37 S,53.45955007,-113.4022907,0.009143518518519,0d 06:00:00,9d 14:45:00,1,neighbourhood,,B1
2503.0_0_B1,,D,TWEDDLE PLACE,East of School: 77 St & 40 Ave,53.47648911,-113.4532758,0.043391203703704,0d 06:00:00,9d 14:45:00,1,neighbourhood,,B1
2577.0_0_B1,,D,TIPASKAN,NORTH SIDE 28 AVE BTWN 91 ST & LAKEWOO,53.45897563,-113.4631064,0.01375,0d 06:00:00,9d 14:45:00,1,roadway,,B1
2581.0_0_B1,,D,TIPASKAN,NORTH SIDE 28 AVE & 79 ST - MILLWOODS RD,53.45876841,-113.450742,0.006087962962963,0d 06:00:00,9d 14:45:00,1,roadway,,B1
2610.0_0_B1,,D,BONNIE DOON,96A-97 ST-93-95 AVE,53.53179874,-113.4797255,0.006226851851852,0d 06:00:00,9d 14:45:00,1,neighbourhood,,B1
2626.0_0_B1,,D,CRAWFORD PLAINS,W/S & C 50 ST BTWN 11-13 AVE,53.44063989,-113.4187295,0.012037037037037,0d 06:00:00,9d 14:45:00,1,roadway,,B1
2632.0_0_B1,,D,RICHFIELD,MILLWOODS ROAD-36 AVE,53.47026464,-113.4558261,0.072372685185185,0d 06:00:00,9d 14:45:00,1,neighbourhood,,B1
2640.0_0_B1,,D,LARKSPUR,WEST OF 24 ST: BETWEEN 38 & 43A AVE,53.47847993,-113.3811779,0.07005787037037,0d 06:00:00,9d 14:45:00,1,neighbourhood,,B1
2642.0_0_B1,,D,MAPLE RIDGE INDUSTRIAL,66 AVE - 3 ST,53.5028667,-113.3485284,0.079166666666667,0d 06:00:00,9d 14:45:00,1,neighbourhood,,B1
2662.0_0_B1,,D,HILLVIEW,38 AVE-58 ST,53.46988154,-113.4269172,0.077766203703704,0d 06:00:00,9d 14:45:00,1,neighbourhood,,B1
2683.0_0_B1,,D,MEYONOHK,ES 91 ST BTWN 23 - 28 AVE,53.45531632,-113.4657287,0.0625,0d 06:00:00,9d 14:45:00,1,roadway,,B1
2705.0_0_B1,,D,WEINLOS,SOUTH SIDE 34 AVE BTWN 50 ST-MILLWOODS RD E,53.46433258,-113.4123796,0.005,0d 06:00:00,9d 14:45:00,1,roadway,,B1
2846.0_0_B1,,D,DAVIES INDUSTRIAL EAST,S/S SH PK FREEWAY: OVERPASS - 50 ST(34 St to 50 St),53.51414833,-113.4213001,0.019606481481482,0d 06:00:00,9d 14:45:00,1,roadway,,B1
2860.0_0_B1,,D,RITCHIE,97 ST-75 AVE,53.51080315,-113.4810636,0.00599537037037,0d 06:00:00,9d 14:45:00,1,neighbourhood,,B1
2913.0_0_B1,,D,TAWA,SOUTH SIDE/C 28 AVE BTWN 66-50 ST,53.45914321,-113.4262274,0.00625,0d 06:00:00,9d 14:45:00,1,roadway,,B1
2914.0_0_B1,,D,KAMEYOSEK,N/S 28 AVE: LAKEWOOD RD E - 66 ST,53.45858925,-113.439506,0.003900462962963,0d 06:00:00,9d 14:45:00,1,roadway,,B1
2915.0_0_B1,,D,KAMEYOSEK,N.S. 28 AVE BTWN PIPELINE & 66 ST,53.45856711,-113.4369712,0.019421296296296,0d 06:00:00,9d 14:45:00,1,roadway,,B1
2921.0_0_B1,,D,BISSET,WEST OF 37 ST & NORTH OF 28 AVE,53.45907884,-113.3992562,0.007858796296296,0d 06:00:00,9d 14:45:00,1,neighbourhood,,B1
2955.0_0_B1,,D,TIPASKAN,ES 91 ST BTWN 28 & 34 AVE,53.4619236,-113.465737,0.072916666666667,0d 06:00:00,9d 14:45:00,1,roadway,,B1
2973.0_0_B1,,D,MORRIS INDUSTRIAL,BTWN 75 & 34 ST INCLUDING 82 AVE - 71 ST,53.51591628,-113.4046955,0.060439814814815,0d 06:00:00,9d 14:45:00,1,roadway,,B1
2985.0_0_B1,,D,CORONET ADDITION INDUSTRIAL,E/S & C 91 ST: -BTWN 58 & 63 AVE,53.49343282,-113.4670906,0.014375,0d 06:00:00,9d 14:45:00,1,roadway,,B1
3041.0_0_B1,,D,KINISKI GARDENS,38 ST - 34 ST & Whitemud Dr - Mill Creek Ravine,53.48179332,-113.4036836,0.09125,0d 06:00:00,9d 14:45:00,1,neighbourhood,,B1
3182.0_0_B1,,D,OTTEWELL,93A AVE-58 ST,53.52930644,-113.424802,0.129791666666667,0d 06:00:00,9d 14:45:00,1,neighbourhood,,B1
3196.0_0_B1,,D,MILL WOODS PARK,SOUTH SIDE/C 23AVE BTWN MILLWOODS RD and 66 ST,53.45344629,-113.4413081,0.019375,0d 06:00:00,9d 14:45:00,1,roadway,,B1
3276.0_0_B1,,D,TAWA,EAST SIDE/C 50 ST BTWN 23-34 AVE,53.45966866,-113.4205523,0.025,0d 06:00:00,9d 14:45:00,1,roadway,,B1
3287.0_0_B1,,D,CRAWFORD PLAINS,East side 50st 11-13ave,53.44112172,-113.4182118,0.006203703703704,0d 06:00:00,9d 14:45:00,1,roadway,,B1
3313.0_0_B1,,D,SUMMERSIDE,Summerside Dr - 88 St,53.42007251,-113.4639724,0.131168981481481,0d 06:00:00,9d 14:45:00,1,neighbourhood,,B1
3359.0_0_B1,,D,CORONET ADDITION INDUSTRIAL,E/S & C 91 ST: 61 AVE - 63 AVE,53.4984472,-113.4671808,0.005914351851852,0d 06:00:00,9d 14:45:00,1,roadway,,B1
3360.0_0_B1,,D,GIRARD INDUSTRIAL,BTWN 75 & 34 ST INCLUDING 82 AVE - 71 ST,53.5157866,-113.4302362,0.052974537037037,0d 06:00:00,9d 14:45:00,1,roadway,,B1
3368.0_0_B1,,D,ELLERSLIE,Edwards Drive-Easton Road-6 Ave SW,53.4282547,-113.4648048,0.00431712962963,0d 06:00:00,9d 14:45:00,1,neighbourhood,,B1
3377.0_0_B1,,D,CRAWFORD PLAINS,12 AVE-41 ST,53.44155176,-113.4052089,0.095196759259259,0d 06:00:00,9d 14:45:00,1,neighbourhood,,B1
3399.0_0_B1,,D,SAKAW,EAST SIDE 66 ST BTWN 10 AVE-MILLWOODS R,53.44216099,-113.4385006,0.046875,0d 06:00:00,9d 14:45:00,1,roadway,,B1
3400.0_0_B1,,D,MEYOKUMIN,19A AVE-57 ST/Millwoods road -56-62 ST,53.44818909,-113.4285355,0.0890625,0d 06:00:00,9d 14:45:00,1,neighbourhood,,B1
3416.0_0_B1,,D,MEYOKUMIN,E/S & C 66 ST: MILLWOODS RD S - 23 AVE,53.44906998,-113.4354028,0.026458333333333,0d 06:00:00,9d 14:45:00,1,roadway,,B1
3432.0_0_B1,,D,MILL WOODS GOLF COURSE,EAST SIDE/C 50 ST-BTWN 40 AVE-WHITEMUD,53.48054226,-113.417776,0.02375,0d 06:00:00,9d 14:45:00,1,roadway,,B1
3434.0_0_B1,,D,ELLERSLIE,319 - 83 St SW,53.42943466,-113.4581559,0.108020833333333,0d 06:00:00,9d 14:45:00,1,neighbourhood,,B1
3472.0_0_B1,,D,ANTHONY HENDAY SOUTHEAST,WEST SIDE 66 ST BTWN 10 AVE-MILLWOODS,53.44073551,-113.4401323,0.005833333333333,0d 06:00:00,9d 14:45:00,1,roadway,,B1
3492.0_0_B1,,D,BISSET,N/S 23 AVE: 38 ST - 34 ST,53.45401563,-113.3968153,0.007291666666667,0d 06:00:00,9d 14:45:00,1,roadway,,B1
3517.0_0_B1,,D,BISSET,SOUTH SIDE 34 AVE-BTWN-MILLWOODS RD E-34 St,53.46363994,-113.4001809,0.017916666666667,0d 06:00:00,9d 14:45:00,1,roadway,,B1
3542.0_0_B1,,D,LEE RIDGE,WS 66 ST: 34 AVE - 38 AVE,53.46988496,-113.438231,0.006921296296296,0d 06:00:00,9d 14:45:00,1,roadway,,B1
3559.0_0_B1,,D,KINISKI GARDENS,38 ST-BTWN 38-41 AVE,53.47481221,-113.4007496,0.114849537037037,0d 06:00:00,9d 14:45:00,1,neighbourhood,,B1
3596.0_0_B1,,D,STRATHCONA INDUSTRIAL PARK,WS/C 91 ST BTWM 39 AVE & WHITEMUD DRIVE,53.47761346,-113.4671558,0.055833333333333,0d 06:00:00,9d 14:45:00,1,roadway,,B1
3611.0_0_B1,,D,TERRACE HEIGHTS,98-101 AVE-64-67 ST,53.53949827,-113.4305311,0.07068287037037,0d 06:00:00,9d 14:45:00,1,neighbourhood,,B1
3618.0_0_B1,,D,STRATHEARN,95 AVE-90 ST,53.53239598,-113.4645996,0.016458333333333,0d 06:00:00,9d 14:45:00,1,neighbourhood,,B1
3646.0_0_B1,,D,TAWA,58 ST & YOUVILLE DR EAST TO POLICE STATI,53.46235135,-113.4255351,0.146666666666667,0d 06:00:00,9d 14:45:00,1,neighbourhood,,B1
3647.0_0_B1,,D,MILL WOODS TOWN CENTRE,55 ST-BTWN 28 AVE-25 AVE,53.45759036,-113.4246402,0.044375,0d 06:00:00,9d 14:45:00,1,neighbourhood,,B1
3666.0_0_B1,,D,ELLERSLIE,North of Edwards Drive SW & East of 91 St SW,53.43105561,-113.4669521,0.008773148148148,0d 06:00:00,9d 14:45:00,1,neighbourhood,,B1
3667.0_0_B1,,D,ELLERSLIE,East of 88 St SW & South of 6 Ave SW,53.42618572,-113.466953,0.010810185185185,0d 06:00:00,9d 14:45:00,1,neighbourhood,,B1
3705.0_0_B1,,D,SUMMERSIDE,Ellerslie Road & 91 St SW,53.42400853,-113.4711774,0.0125,0d 06:00:00,9d 14:45:00,1,neighbourhood,,B1
3706.0_0_B1,,D,ELLERSLIE INDUSTRIAL,S/S Ellerslie Road: Parsons Rd - 91 St,53.424915,-113.4765264,0.009375,0d 06:00:00,9d 14:45:00,1,roadway,,B1
3707.0_0_B1,,D,SUMMERSIDE,S/S Ellerslie Road: 91 St - 78 St,53.42474573,-113.4597029,0.020833333333333,0d 06:00:00,9d 14:45:00,1,roadway,,B1
3767.0_0_B1,,D,OTTEWELL,98 AVE BETWEEN 50 ST & 57 ST,53.537579,-113.4201912,0.006770833333333,0d 06:00:00,9d 14:45:00,1,neighbourhood,,B1
3780.0_0_B1,,D,MICHAELS PARK,WEST SIDE 66 ST BTWN 38 AVE-WHITEMUD D,53.47769273,-113.4412082,0.005208333333333,0d 06:00:00,9d 14:45:00,1,roadway,,B1
3820.0_0_B1,,D,WILD ROSE,38 AVE & 17 ST,53.47633057,-113.3704977,0.003958333333333,0d 06:00:00,9d 14:45:00,1,neighbourhood,,B1
3846.0_0_B1,,D,MICHAELS PARK,BTWN MILLBOURNE RD E-66 ST,53.47997797,-113.4441735,0.00755787037037,0d 06:00:00,9d 14:45:00,1,neighbourhood,,B1
3883.0_0_B1,,D,TAWA,E/S & C 66 ST: 28 AVE - 34 AVE,53.46287218,-113.4348846,0.005,0d 06:00:00,9d 14:45:00,1,roadway,,B1
3897.0_0_B1,,D,WILD ROSE,WEST OF 23 ST: 38 AVE - 37A AVE,53.4739436,-113.3811523,0.042650462962963,0d 06:00:00,9d 14:45:00,1,neighbourhood,,B1
3907.0_0_B1,,D,KINISKI GARDENS,W/S & C 34 St: 38 Ave South to Ravine,53.46893081,-113.3939601,0.028020833333333,0d 06:00:00,9d 14:45:00,1,roadway,,B1
3921.0_0_B1,,D,MILL WOODS GOLF COURSE,EAST SIDE/C 66 ST: 38 AVE-WHITEMUD DRIVE,53.47947008,-113.4412674,0.027083333333333,0d 06:00:00,9d 14:45:00,1,roadway,,B1
3951.0_0_B1,,D,KINISKI GARDENS,W/S 34 ST: WHITEMUD DR - 38 AVE,53.4802683,-113.3939614,0.020833333333333,0d 06:00:00,9d 14:45:00,1,roadway,,B1
3955.0_0_B1,,D,WILD ROSE,East of 28 St & South of 37A Ave,53.46962439,-113.3812609,0.0065625,0d 06:00:00,9d 14:45:00,1,neighbourhood,,B1
3958.0_0_B1,,D,FOREST HEIGHTS,80 ST-S OF 101 AVE,53.53927859,-113.4508733,0.041666666666667,0d 06:00:00,9d 14:45:00,1,neighbourhood,,B1
3959.0_0_B1,,D,EASTGATE BUSINESS PARK,E/S & C 50 ST: 92 AVE - 101 AVE,53.53249873,-113.4183825,0.042708333333333,0d 06:00:00,9d 14:45:00,1,neighbourhood,,B1
3974_0_0_B1,,D,SOUTHEAST INDUSTRIAL,17 ST-66 AVE,53.50154929,-113.3675824,0.06431712962963,1d 06:00:00,1d 14:45:00,1,neighbourhood,,B1
3974_1_0_B1,,D,SOUTHEAST INDUSTRIAL,17 ST-66 AVE,53.50154929,-113.3675824,0.06431712962963,1d 06:00:00,1d 14:45:00,1,neighbourhood,,B1
3974_2_0_B1,,D,SOUTHEAST INDUSTRIAL,17 ST-66 AVE,53.50154929,-113.3675824,0.06431712962963,1d 06:00:00,1d 14:45:00,1,neighbourhood,,B1
3977.0_0_B1,,D,GREENVIEW,WEST SIDE 50 ST BTWN 38-40 AVE,53.4731319,-113.4160265,0.008333333333333,0d 06:00:00,9d 14:45:00,1,roadway,,B1
3996.0_0_B1,,D,LEE RIDGE,MILLBOURNE RD E-LEE RIDGE RD,53.47100097,-113.4468918,0.104166666666667,0d 06:00:00,9d 14:45:00,1,neighbourhood,,B1
4010.0_0_B1,,D,IDYLWYLDE,N/S & C 90 AVE: 75 ST - 85 ST,53.52534617,-113.4499205,0.011608796296296,0d 06:00:00,9d 14:45:00,1,neighbourhood,,B1
4011_0_0_B1,,D,OTTEWELL,67A ST-93A AVE,53.53125177,-113.4270686,0.076388888888889,9d 06:00:00,9d 14:45:00,1,neighbourhood,,B1
4011_1_0_B1,,D,OTTEWELL,67A ST-93A AVE,53.53125177,-113.4270686,0.076388888888889,9d 06:00:00,9d 14:45:00,1,neighbourhood,,B1
4011_2_0_B1,,D,OTTEWELL,67A ST-93A AVE,53.53125177,-113.4270686,0.076388888888889,9d 06:00:00,9d 14:45:00,1,neighbourhood,,B1
4013.0_0_B1,,D,ELLERSLIE,67 ST - 6 AVE SW,53.42720319,-113.447899,0.0625,0d 06:00:00,9d 14:45:00,1,neighbourhood,,B1
4034.0_0_B1,,D,MINCHAU,EAST SIDE/C 50 ST 38 - 40 AVE,53.47302522,-113.4155722,0.011747685185185,0d 06:00:00,9d 14:45:00,1,roadway,,B1
4035.0_0_B1,,D,GREENVIEW,79 AVE-87 ST,53.51411138,-113.4595635,0.046979166666667,0d 06:00:00,9d 14:45:00,1,neighbourhood,,B1
4043.0_0_B1,,D,PAPASCHASE INDUSTRIAL,79 ST-94 AVE,53.53148454,-113.4508368,0.111018518518519,0d 06:00:00,9d 14:45:00,1,neighbourhood,,B1
4045_0_0_B1,,D,OTTEWELL,17 Ave-18A Ave & 48 St-Mill Woods Road East,53.44749477,-113.4080485,0.072550154320988,9d 06:00:00,9d 14:45:00,1,neighbourhood,,B1
4045_1_0_B1,,D,OTTEWELL,17 Ave-18A Ave & 48 St-Mill Woods Road East,53.44749477,-113.4080485,0.072550154320988,9d 06:00:00,9d 14:45:00,1,neighbourhood,,B1
4045_2_0_B1,,D,OTTEWELL,17 Ave-18A Ave & 48 St-Mill Woods Road East,53.44749477,-113.4080485,0.072550154320988,9d 06:00:00,9d 14:45:00,1,neighbourhood,,B1
4048.0_0_B1,,D,DALY GROVE,1888 - 37 ST,53.44873644,-113.4006682,0.102337962962963,0d 06:00:00,9d 14:45:00,1,neighbourhood,,B1
4075.0_0_B1,,D,OTTEWELL,W/S 50 ST: 90 AVE - 101 AVE,53.52949572,-113.4189642,0.005625,0d 06:00:00,9d 14:45:00,1,neighbourhood,,B1
4081.0_0_B1,,D,SATOO,SOUTH SIDE&C 23 AVE-BTWN 85 ST-MILLWOO,53.45243671,-113.4541011,0.022291666666667,0d 06:00:00,9d 14:45:00,1,roadway,,B1
4087.0_0_B1,,D,CORONET INDUSTRIAL,91 ST BTWN 51 & 54 AVE,53.48984947,-113.4670316,0.016666666666667,0d 06:00:00,9d 14:45:00,1,roadway,,B1
4122_0_0_B1,,D,LARKSPUR,43A AVE: 27 - 30 ST,53.47978351,-113.3847698,0.066253858024691,2d 06:00:00,2d 14:45:00,1,neighbourhood,,B1
4122_1_0_B1,,D,LARKSPUR,43A AVE: 27 - 30 ST,53.47978351,-113.3847698,0.066253858024691,2d 06:00:00,2d 14:45:00,1,neighbourhood,,B1
4122_2_0_B1,,D,LARKSPUR,43A AVE: 27 - 30 ST,53.47978351,-113.3847698,0.066253858024691,2d 06:00:00,2d 14:45:00,1,neighbourhood,,B1
4123.0_0_B1,,D,BONNIE DOON,91 ST-86 AVE,53.5227385,-113.4689726,0.007337962962963,0d 06:00:00,9d 14:45:00,1,neighbourhood,,B1
4165.0_0_B1,,D,WILD ROSE,23 ST & 37A AVE,53.47135276,-113.3787691,0.098229166666667,0d 06:00:00,9d 14:45:00,1,neighbourhood,,B1
4177.0_0_B1,,D,TWEDDLE PLACE,Millbourned Road West & 40 Ave,53.47576909,-113.4545088,0.043391203703704,0d 06:00:00,9d 14:45:00,1,neighbourhood,,B1
4186.0_0_B1,,D,JACKSON HEIGHTS,JAMHA ROAD & JACKSON ROAD,53.48343111,-113.4072579,0.053032407407407,0d 06:00:00,9d 14:45:00,1,neighbourhood,,B1
4198.0_0_B1,,D,FOREST HEIGHTS,79 ST-98 AVE,53.53804707,-113.4470586,0.043125,0d 06:00:00,9d 14:45:00,1,neighbourhood,,B1
4204.0_0_B1,,D,TAWA,SOUTH SIDE/C 34 AVE-BTWN-66-50 ST,53.46524425,-113.4282146,0.020833333333333,0d 06:00:00,9d 14:45:00,1,roadway,,B1
4221.0_0_B1,,D,KAMEYOSEK,WEST SIDE 66 ST BTWN 28-34 AVE,53.46307087,-113.4353435,0.005,0d 06:00:00,9d 14:45:00,1,roadway,,B1
4259.0_0_B1,,D,KINISKI GARDENS,44 ST-39 AVE,53.47452958,-113.4056587,0.00869212962963,0d 06:00:00,9d 14:45:00,1,neighbourhood,,B1
4260.0_0_B1,,D,WEINLOS,W/S MILL WOODS RD EAST: 23 AVE - 34 AVE,53.4598939,-113.4075201,0.02587962962963,0d 06:00:00,9d 14:45:00,1,roadway,,B1
4261.0_0_B1,,D,CAPILANO,54 ST & 107A AVE,53.55571284,-113.4235434,0.104166666666667,0d 06:00:00,9d 14:45:00,1,neighbourhood,,B1
4262.0_0_B1,,D,OTTEWELL,WEST SIDE 50 ST-82-90 AVE,53.52051234,-113.4190959,0.013831018518519,0d 06:00:00,9d 14:45:00,1,neighbourhood,,B1
4267.0_0_B1,,D,BISSET,37 ST-33 AVE,53.46154834,-113.4005705,0.156087962962963,0d 06:00:00,9d 14:45:00,1,neighbourhood,,B1
4288.0_0_B1,,D,RIVER VALLEY GOLD BAR,NORTH SIDE OF 106 AVE: 74 ST - ROWLAND Rd,53.54958854,-113.4397842,0.00625,0d 06:00:00,9d 14:45:00,1,neighbourhood,,B1
4294.0_0_B1,,D,WEINLOS,48 ST & 28 AVE,53.46097016,-113.4141569,0.125555555555556,0d 06:00:00,9d 14:45:00,1,neighbourhood,,B1
4308.0_0_B1,,D,KENILWORTH,86 AVE-68A ST,53.51979663,-113.4305139,0.054583333333333,0d 06:00:00,9d 14:45:00,1,neighbourhood,,B1
4328.0_0_B1,,D,MEYONOHK,79 ST-LAKEWOOD RD S,53.45529188,-113.4558291,0.087337962962963,0d 06:00:00,9d 14:45:00,1,neighbourhood,,B1
4331.0_0_B1,,D,ELLERSLIE,EAST OF 75 ST SW & NORTH OF 7 AVE SW,53.42781177,-113.44932,0.010231481481482,0d 06:00:00,9d 14:45:00,1,neighbourhood,,B1
4341.0_0_B1,,D,KINISKI GARDENS,41 AVE-41 ST,53.47838217,-113.4062629,0.13755787037037,0d 06:00:00,9d 14:45:00,1,neighbourhood,,B1
4344.0_0_B1,,D,BISSET,W/S & C 34 St: 34 Ave - 23 Ave,53.45868909,-113.3941215,0.06,0d 06:00:00,9d 14:45:00,1,roadway,,B1
4362.0_0_B1,,D,GREENVIEW,50-54 ST & 38-39 A AVE,53.47265947,-113.4182492,0.004710648148148,0d 06:00:00,9d 14:45:00,1,neighbourhood,,B1
4365.0_0_B1,,D,RICHFIELD,SOUTH SIDE/C 34 AVE-91 ST-MILLWOODS RD,53.46504899,-113.4592898,0.01806712962963,0d 06:00:00,9d 14:45:00,1,roadway,,B1
4396.0_0_B1,,D,OTTEWELL,E/S & C 50 ST: 90 AVE - 92 AVE,53.52476798,-113.4186068,0.003541666666667,0d 06:00:00,9d 14:45:00,1,neighbourhood,,B1
4398.0_0_B1,,D,SOUTHEAST INDUSTRIAL,17 St - 68 Ave,53.50519941,-113.3651641,0.079849537037037,0d 06:00:00,9d 14:45:00,1,neighbourhood,,B1
4415.0_0_B1,,D,SILVER BERRY,East of 30 St: 33 Ave - 23 Ave,53.45963731,-113.3817214,0.095474537037037,0d 06:00:00,9d 14:45:00,1,neighbourhood,,B1
4423.0_0_B1,,D,EKOTA,MW RD S-75 ST/ES OF SCHOOL,53.44656424,-113.4479371,0.016921296296296,0d 06:00:00,9d 14:45:00,1,neighbourhood,,B1
4427.0_0_B1,,D,KAMEYOSEK,LAKEWOOD RD E - 31 AVE,53.46125892,-113.4432301,0.101273148148148,0d 06:00:00,9d 14:45:00,1,neighbourhood,,B1
4439.0_0_B1,,D,GAINER INDUSTRIAL,82 AVE-71 ST,53.5179328,-113.4379913,0.005416666666667,0d 06:00:00,9d 14:45:00,1,roadway,,B1
4443.0_0_B1,,D,PARSONS INDUSTRIAL,28 Ave: Parsons Road (99 St) - 91 St,53.45879988,-113.475642,0.030625,0d 06:00:00,9d 14:45:00,1,roadway,,B1
4452.0_0_B1,,D,LAMBTON INDUSTRIAL,E/S & C 50 ST: 82 - 90 AVE,53.51956079,-113.4183455,0.007916666666667,0d 06:00:00,9d 14:45:00,1,neighbourhood,,B1
4471.0_0_B1,,D,TAMARACK,Tamarack Green - 12 St,53.46908585,-113.3606443,0.143125,0d 06:00:00,9d 14:45:00,1,neighbourhood,,B1
4482.0_0_B1,,D,POLLARD MEADOWS,E/S & C 50 St: Mill Woods Road South - 23 Ave,53.44998974,-113.4193237,0.039583333333333,0d 06:00:00,9d 14:45:00,1,roadway,,B1
4483.0_0_B1,,D,MINCHAU,EAST SIDE/C 50 ST BTWN 34 & 38 AVE,53.46759607,-113.4181133,0.014872685185185,0d 06:00:00,9d 14:45:00,1,roadway,,B1
4485.0_0_B1,,D,LEE RIDGE,E/S & C 66 ST: 34 AVE - 38 AVE,53.46980168,-113.4376774,0.020833333333333,0d 06:00:00,9d 14:45:00,1,roadway,,B1
4522.0_0_B1,,D,TERRACE HEIGHTS,68 ST-100 AVE,53.53949524,-113.435579,0.006122685185185,0d 06:00:00,9d 14:45:00,1,neighbourhood,,B1
4529.0_0_B1,,D,ELLERSLIE INDUSTRIAL,Ellerslie Rd:101 St-91 St & Parsons Rd:N of Ellersli,53.42624096,-113.4829633,0.033333333333333,0d 06:00:00,9d 14:45:00,1,roadway,,B1
4531.0_0_B1,,D,CHARLESWORTH,66 St SW & 2 Ave SW,53.429125,-113.4404401,0.022916666666667,0d 06:00:00,9d 14:45:00,1,neighbourhood,,B1
4532.0_0_B1,,D,WILD ROSE,3225 - 35 A Ave,53.46712332,-113.3923492,0.017175925925926,0d 06:00:00,9d 14:45:00,1,neighbourhood,,B1
4533.0_0_B1,,D,TAMARACK,East Side & Center 17 St: Whitemud Drive - 34 Av,53.4764141,-113.3685041,0.042083333333333,0d 06:00:00,9d 14:45:00,1,roadway,,B1
4538_0_0_B1,,D,GREENVIEW,38 AVE-58 ST,53.47530033,-113.427371,0.05929012345679,2d 06:00:00,2d 14:45:00,1,neighbourhood,,B1
4538_1_0_B1,,D,GREENVIEW,38 AVE-58 ST,53.47530033,-113.427371,0.05929012345679,2d 06:00:00,2d 14:45:00,1,neighbourhood,,B1
4538_2_0_B1,,D,GREENVIEW,38 AVE-58 ST,53.47530033,-113.427371,0.05929012345679,2d 06:00:00,2d 14:45:00,1,neighbourhood,,B1
4539.0_0_B1,,D,SILVER BERRY,3335 - 25 Street,53.465245,-113.3785316,0.049143518518519,0d 06:00:00,9d 14:45:00,1,neighbourhood,,B1
4543.0_0_B1,,D,CHARLESWORTH,ELLERSLIE ROAD-66 ST,53.42636695,-113.4405375,0.116666666666667,0d 06:00:00,9d 14:45:00,1,neighbourhood,,B1
4550.0_0_B1,,D,GAINER INDUSTRIAL,BTWN 75 & 34 ST INCLUDING 82 AVE - 71 ST,53.51408458,-113.4324145,0.00994212962963,0d 06:00:00,9d 14:45:00,1,roadway,,B1
4554.0_0_B1,,D,ELLERSLIE,66 St Ellerslie to 2 AVE,53.42793174,-113.4427959,0.015625,0d 06:00:00,9d 14:45:00,1,roadway,,B1
4556.0_0_B1,,D,FULTON PLACE,FULTON ROAD-103-104 AVE,53.54598543,-113.4250088,0.05755787037037,0d 06:00:00,9d 14:45:00,1,neighbourhood,,B1
4572.0_0_B1,,D,SATOO,KNOTTWOOD ROAD W-17 AVE,53.44613593,-113.4576249,0.064895833333333,0d 06:00:00,9d 14:45:00,1,neighbourhood,,B1
4576.0_0_B1,,D,OTTEWELL,94 AVE-OTTEWELL ROAD,53.53142729,-113.4372789,0.071273148148148,0d 06:00:00,9d 14:45:00,1,neighbourhood,,B1
4581.0_0_B1,,D,SUMMERSIDE,Savaryn Drive & Summerside Link,53.41291999,-113.4775009,0.056956018518519,0d 06:00:00,9d 14:45:00,1,neighbourhood,,B1
4583.0_0_B1,,D,OTTEWELL,S/S & C 98 AVE: 67A ST - TERRACE ROAD,53.53704906,-113.4293798,0.005752314814815,0d 06:00:00,9d 14:45:00,1,neighbourhood,,B1
4586.0_0_B1,,D,TERRACE HEIGHTS,67-70 ST-101-103 AVE,53.54272791,-113.432695,0.024537037037037,0d 06:00:00,9d 14:45:00,1,neighbourhood,,B1
4604.0_0_B1,,D,GOLD BAR,46 St & 106 Ave,53.54981941,-113.4141054,0.061655092592593,0d 06:00:00,9d 14:45:00,1,neighbourhood,,B1
4609.0_0_B1,,D,STRATHEARN,89 ST-95 AVE,53.5307297,-113.4620961,0.06,0d 06:00:00,9d 14:45:00,1,neighbourhood,,B1
4616.0_0_B1,,D,FOREST HEIGHTS,83 ST-100 AVE,53.53934181,-113.4556598,0.019791666666667,0d 06:00:00,9d 14:45:00,1,neighbourhood,,B1
4623.0_0_B1,,D,FULTON PLACE,104 AVE-62 ST,53.54797208,-113.4299653,0.054270833333333,0d 06:00:00,9d 14:45:00,1,neighbourhood,,B1
4625.0_0_B1,,D,RIVER VALLEY GOLD BAR,NE OF 79 ST-101 AVE,53.54312581,-113.44647,0.045,0d 06:00:00,9d 14:45:00,1,neighbourhood,,B1
4626.0_0_B1,,D,FOREST HEIGHTS,76 ST-105 AVE,53.54712329,-113.4437936,0.014791666666667,0d 06:00:00,9d 14:45:00,1,neighbourhood,,B1
4636.0_0_B1,,D,Roper Industrial,7004 McIntyre,53.49657781,-113.4349257,0.006018518518519,0d 06:00:00,9d 14:45:00,1,neighbourhood,,B1
4643.0_0_B1,,D,FOREST HEIGHTS,Wayne Gretzky Drive: 101 Ave - River,53.54981994,-113.4396051,0.080358796296296,0d 06:00:00,9d 14:45:00,1,neighbourhood,,B1
4644.0_0_B1,,D,ELLERSLIE,E/S 91 St: Edwards Drive - Easton Road,53.4289211,-113.4718033,0.006643518518519,0d 06:00:00,9d 14:45:00,1,roadway,,B1
4650.0_0_B1,,D,WEINLOS,N/S 23 AVE: 50ST - MILLWOODS RD E,53.45546733,-113.4144299,0.031458333333333,0d 06:00:00,9d 14:45:00,1,roadway,,B1
4651.0_0_B1,,D,FOREST HEIGHTS,7304 ROWLAND ROAD,53.55304255,-113.4392846,0.007291666666667,0d 06:00:00,9d 14:45:00,1,neighbourhood,,B1
4652.0_0_B1,,D,KING EDWARD PARK,S/S 82 AVE: 73-71 ST & 71 ST: 82-79 AVE,53.51742877,-113.4378236,0.007083333333333,0d 06:00:00,9d 14:45:00,1,roadway,,B1
4655.0_0_B1,,D,CLOVERDALE,98 AVE - 93 ST,53.53852272,-113.4712717,0.013287037037037,0d 06:00:00,9d 14:45:00,1,neighbourhood,,B1
994667.0_0_B1,,D,CLOVERDALE,9411 - 97 Avenue,53.53440614,-113.4725643,0.12662037037037,0d 06:00:00,9d 14:45:00,1,neighbourhood,,B1
4674.0_0_B1,,D,CHARLESWORTH,503 - 59 St SW (5805 - 3 AVE),53.42917856,-113.4315572,0.070833333333333,0d 06:00:00,9d 14:45:00,1,neighbourhood,,B1
4682.0_0_B1,,D,SILVER BERRY,South of 32 Ave & East of Silver Berry Road,53.46152714,-113.3758157,0.020578703703704,0d 06:00:00,9d 14:45:00,1,neighbourhood,,B1
4683.0_0_B1,,D,SILVER BERRY,31 Ave East of 30 St,53.46152891,-113.3794979,0.025729166666667,0d 06:00:00,9d 14:45:00,1,neighbourhood,,B1
4684.0_0_B1,,D,OTTEWELL,96A AVE-OTTEWELL ROAD,53.53412676,-113.4393086,0.03875,0d 06:00:00,9d 14:45:00,1,neighbourhood,,B1
4685.0_0_B1,,D,SUMMERSIDE,Sunset Blvd (70 St) - Ellerslie Rd,53.42394909,-113.4492492,0.03125,0d 06:00:00,9d 14:45:00,1,neighbourhood,,B1
4689.0_0_B1,,D,ELLERSLIE INDUSTRIAL,91 ST E/W Parsons Rd - 25 Avenue,53.41468495,-113.4813885,0.020833333333333,0d 06:00:00,9d 14:45:00,1,roadway,,B1
4708.0_0_B1,,D,WALKER,66 St SW & Ellerslie Road,53.42376245,-113.4408112,0.025,0d 06:00:00,9d 14:45:00,1,neighbourhood,,B1
4709.0_0_B1,,D,CHARLESWORTH,55 St SW & 3 Ave SW (5607 3 AVE),53.42802726,-113.4296006,0.008333333333333,0d 06:00:00,9d 14:45:00,1,neighbourhood,,B1
4725.0_0_B1,,D,SUMMERSIDE,70 St SW & 16 Ave SW - 21 Ave SW,53.41780384,-113.451045,0.116747685185185,0d 06:00:00,9d 14:45:00,1,neighbourhood,,B1
5321.0_0_B1,,D,Summerside,Orchards Gate SW & Orchards Dr SW,53.40736169,-113.4741846,0.019583333333333,0d 06:00:00,9d 14:45:00,1,neighbourhood,,B1
5323.0_0_B1,,D,SUMMERSIDE,25 Ave SW & Orchards Gate,53.40983397,-113.4709706,0.021481481481482,0d 06:00:00,9d 14:45:00,1,neighbourhood,,B1
5565.0_0_B1,,D,WILD ROSE,34 ave 21 st NW,53.46643817,-113.3751525,0.018599537037037,0d 06:00:00,9d 14:45:00,1,neighbourhood,,B1
5845.0_0_B1,,D,WALKER,66 St: 21 Ave SW to Ellerslie Rd,53.417599851,-113.442478953,0.029143518518519,0d 06:00:00,9d 14:45:00,1,roadway,,B1
6250.0_0_B1,,D,SUMMERSIDE,90 St & 23 Ave SW,53.41169516,-113.4724155,0.021412037037037,0d 06:00:00,9d 14:45:00,1,neighbourhood,,B1
6286.0_0_B1,,D,LAUREL,"East of 28 St, near 20 Ave NW",53.450518786,-113.381810411,0.091215277777778,0d 06:00:00,9d 14:45:00,1,neighbourhood,,B1
6306.0_0_B1,,D,PYLYPOW INDUSTRIAL,Roper Rd & 36 St,53.49648373,-113.3974274,0.104166666666667,0d 06:00:00,9d 14:45:00,1,neighbourhood,,B1
6827.0_0_B1,,D,SUMMERSIDE,Savaryn Drive and 22 Avenue SW,53.41464618,-113.4624041,0.143125,0d 06:00:00,9d 14:45:00,1,neighbourhood,,B1
6848.0_0_B1,,D,SUMMERSIDE,70 Street SW and 18 Avenue SW,53.41783449,-113.4492125,0.10806712962963,0d 06:00:00,9d 14:45:00,1,neighbourhood,,B1
7430.0_0_B1,,D,LAUREL,32 St & 16A Ave NW,53.44484975,-113.390003,0.052835648148148,0d 06:00:00,9d 14:45:00,1,neighbourhood,,B1
8287.0_0_B1,,D,Laurel,32 Street - 17A Avenue,53.44606634,-113.385804236,0.060381944444445,0d 06:00:00,9d 14:45:00,1,neighbourhood,,B1
8382.0_0_B1,,D,TAMARACK,Tamarack Blvd - 28 Avenue,53.459029552,-113.363658425,0.028321759259259,0d 06:00:00,9d 14:45:00,1,neighbourhood,,B1
8442.0_0_B1,,D,Laurel,32 St & 14 Ave,53.40568068,-113.4728549,0.010335648148148,0d 06:00:00,9d 14:45:00,1,neighbourhood,,B1
8443.0_0_B1,,D,Summerside,East of Crabapple Run SW from 4709 Crabapple Run SW to 4631 Crabapple Run SW,53.40568068,-113.4728549,0.007060185185185,0d 06:00:00,9d 14:45:00,1,neighbourhood,,B1
9146.0_0_B1,,D,SOUTHEAST INDUSTRIAL,51 Avenue East of 34 Street,53.4894329,-113.3920124,0.020185185185185,0d 06:00:00,9d 14:45:00,1,neighbourhood,,B1
9354.0_0_B1,,D,Cloverdale,98 AVE-CONNORS ROAD-99 ST,53.53407858,-113.483941,0.045891203703704,0d 06:00:00,9d 14:45:00,1,neighbourhood,,B1
2687_0_0_B1,,D,Bulyea Heights,#300 BULYEA ROAD,53.47339753,-113.574114,0.0671875,9d 06:00:00,9d 14:45:00,1,neighbourhood,,B1
2687_1_0_B1,,D,Bulyea Heights,#300 BULYEA ROAD,53.47339753,-113.574114,0.0671875,9d 06:00:00,9d 14:45:00,1,neighbourhood,,B1
2687_2_0_B1,,D,Bulyea Heights,#300 BULYEA ROAD,53.47339753,-113.574114,0.0671875,9d 06:00:00,9d 14:45:00,1,neighbourhood,,B1
75.0_0_B1,,D,Twin Brooks,09 AVE-111-113 ST,53.43955434,-113.5223116,0.011018518518519,0d 06:00:00,9d 14:45:00,1,neighbourhood,,B1
93.0_0_B1,,D,Terwilleger TOWNE,1053 Tory Road,53.45191419,-113.5734249,0.003668981481481,0d 06:00:00,9d 14:45:00,1,neighbourhood,,B1
152.0_0_B1,,D,MacEwan,Ellerslie Rd (9 Ave. SW) N. & S. side - (119 St.) to SCHOOL,53.42490752,-113.5327273,0.0375,0d 06:00:00,9d 14:45:00,1,neighbourhood,,B1
194.0_0_B1,,D,Falconer Heights,FALCONER Road- # 1401 FALCONER ROAD,53.46839614,-113.5912643,0.008252314814815,0d 06:00:00,9d 14:45:00,1,neighbourhood,,B1
208.0_0_B1,,D,Leger,#1003 Leger Boulevard & Rabbit Hill Road,53.4595878,-113.5675726,0.013981481481482,0d 06:00:00,9d 14:45:00,1,neighbourhood,,B1
336.0_0_B1,,D,Ramsey Heights,43 AVE-WHITEMUD ROAD,53.48307766,-113.5859012,0.004814814814815,0d 06:00:00,9d 14:45:00,1,neighbourhood,,B1
356.0_0_B1,,D,Ermineskin,29A AVE-104 ST,53.46059016,-113.4965017,0.013599537037037,0d 06:00:00,9d 14:45:00,1,neighbourhood,,B1
487.0_0_B1,,D,Haddow,1808 Haswell Way,53.45113302,-113.5995119,0.013796296296296,0d 06:00:00,9d 14:45:00,1,neighbourhood,,B1
536.0_0_B1,,D,Richford,9 Ave. - 110 St to 107 St.,53.42521698,-113.5090275,0.010416666666667,0d 06:00:00,9d 14:45:00,1,neighbourhood,,B1
559.0_0_B1,,D,Ramsey Heights,43 AVE-147A ST,53.47916891,-113.5760812,0.008148148148148,0d 06:00:00,9d 14:45:00,1,neighbourhood,,B1
571.0_0_B1,,D,Haddow,1572 Hector Road,53.45870501,-113.6051601,0.004166666666667,0d 06:00:00,9d 14:45:00,1,neighbourhood,,B1
649.0_0_B1,,D,Empire Park,111 ST: WHITEMUD DRIVE to 51 AVE,53.48532079,-113.5176727,0.023773148148148,0d 06:00:00,9d 14:45:00,1,neighbourhood,,B1
665.0_0_B1,,D,South Edmonton Common,E/S GATEWAY BLVD: 19 AVE - 15 AVE,53.444490589,-113.492194656,0.012708333333333,0d 06:00:00,9d 14:45:00,1,roadway,,B1
691.0_0_B1,,D,Windsor Park,89 AVE-118 ST,53.52514221,-113.5359495,0.01806712962963,0d 06:00:00,9d 14:45:00,1,neighbourhood,,B1
761.0_0_B1,,D,Terwilleger South,Rabbit Hill Road - #7005 South Terwilleger Drive,53.43804279,-113.5716399,0.019502314814815,0d 06:00:00,9d 14:45:00,1,neighbourhood,,B1
814.0_0_B1,,D,Royal Gardens,43 AVE:111 - 122 ST,53.47994354,-113.5290232,0.048645833333333,0d 06:00:00,9d 14:45:00,1,neighbourhood,,B1
882.0_0_B1,,D,Carter Crest,Terwillegar Drive - 156 St,53.46162335,-113.5889866,0.005856481481481,0d 06:00:00,9d 14:45:00,1,roadway,,B1
909.0_0_B1,,D,Carter Crest,203 Carmichael CL-#1160 to #1074 Carter Crest Rd.,53.46483969,-113.5767544,0.011331018518519,0d 06:00:00,9d 14:45:00,1,neighbourhood,,B1
950.0_0_B1,,D,Ogilvie Ridge,OGILVIE BLVD-OMAND DRIVE,53.46343815,-113.5630866,0.028854166666667,0d 06:00:00,9d 14:45:00,1,neighbourhood,,B1
982.0_0_B1,,D,Ogilvie Ridge,Rabbit Hill road to behind #229 Ockenden Placee,53.46164111,-113.566618,0.017939814814815,0d 06:00:00,9d 14:45:00,1,neighbourhood,,B1
1003.0_0_B1,,D,Haddow,1503 HASWELL CLOSE,53.45033688,-113.5981467,0.01224537037037,0d 06:00:00,9d 14:45:00,1,neighbourhood,,B1
1016.0_0_B1,,D,Rideau Park,South side - CPR TRACKS - 111 ST,53.481138124,-113.507437249,0.048310185185185,0d 06:00:00,9d 14:45:00,1,roadway,,B1
1042.0_0_B1,,D,MacEwan,from #484 MacEwan Road to #2733 Miles Place,53.42625235,-113.5373578,0.025625,0d 06:00:00,9d 14:45:00,1,neighbourhood,,B1
1095.0_0_B1,,D,Calgary Trail North,South side - CPR TRACKS - Gateway Blvd South,53.480068929,-113.494374941,0.007233796296296,0d 06:00:00,9d 14:45:00,1,roadway,,B1
1149.0_0_B1,,D,Duggan,Calgry Trail South - 34 Ave. to 42 Ave.,53.4715742,-113.4956654,0.066296296296296,0d 06:00:00,9d 14:45:00,1,neighbourhood,,B1
1150.0_0_B1,,D,Aspen Gardens,41A AVE - 123 ST,53.48048827,-113.5481724,0.033229166666667,0d 06:00:00,9d 14:45:00,1,neighbourhood,,B1
1183.0_0_B1,,D,Westbrook Estate,WESTBROOK DRIVE-124 ST,53.462898,-113.5440734,0.015833333333333,0d 06:00:00,9d 14:45:00,1,neighbourhood,,B1
1211.0_0_B1,,D,Brander Gardens,RIVERBEND ROAD-148 ST,53.49742958,-113.5742093,0.004583333333333,0d 06:00:00,9d 14:45:00,1,neighbourhood,,B1
1352.0_0_B1,,D,MacEwan,Btw. #646 & #616 & behind #616 & #710 McAllister Loop SW,53.43211931,-113.5213959,0.00630787037037,0d 06:00:00,9d 14:45:00,1,neighbourhood,,B1
1494.0_0_B1,,D,Blue Quill Estates,28-29 AVE-125-126 ST,53.45891079,-113.5467675,0.028668981481482,0d 06:00:00,9d 14:45:00,1,neighbourhood,,B1
1547.0_0_B1,,D,Duggan,3803-105 ST,53.47341421,-113.5000821,0.039583333333333,0d 06:00:00,9d 14:45:00,1,neighbourhood,,B1
1555.0_0_B1,,D,Terwilleger TOWNE,1084 Tory Road - #217 Tory Crescent to Rabbit Hill Rd..,53.45237812,-113.5670903,0.02900462962963,0d 06:00:00,9d 14:45:00,1,neighbourhood,,B1
1575.0_0_B1,,D,Bulyea Heights,BURTON ROAD-BUTTERWORTH CLOSE,53.47870978,-113.5631236,0.045,0d 06:00:00,9d 14:45:00,1,neighbourhood,,B1
1601.0_0_B1,,D,Terwilleger TOWNE,4149 Tompkins Way,53.44755859,-113.5797159,0.005104166666667,0d 06:00:00,9d 14:45:00,1,neighbourhood,,B1
1636.0_0_B1,,D,Queen Alexandra,73 AVE-108 ST,53.50966421,-113.5083314,0.005,0d 06:00:00,9d 14:45:00,1,neighbourhood,,B1
1663.0_0_B1,,D,Sweet Grass,SADDLEBACK RD. 111 - 119 ST,53.46118388,-113.5182582,0.135509259259259,0d 06:00:00,9d 14:45:00,1,neighbourhood,,B1
1691.0_0_B1,,D,Brookside,56 AVE-141-145 ST,53.49349408,-113.5673686,0.016458333333333,0d 06:00:00,9d 14:45:00,1,neighbourhood,,B1
1692.0_0_B1,,D,Brander Gardens,147 ST-54-61 AVE,53.49586336,-113.5729885,0.004872685185185,0d 06:00:00,9d 14:45:00,1,neighbourhood,,B1
1711.0_0_B1,,D,Windermere South,Windermere Dr. Windermere Blv. - 67 Windermere Dr walkway & from 67 Windemere Drive to 403 - 181 St,53.43508963,-113.6325826,0.01568287037037,0d 06:00:00,9d 14:45:00,1,neighbourhood,,B1
1757.0_0_B1,,D,Rhatigan Ridge,403 REEVES CRESENT-RIVERBEND ROAD,53.47366247,-113.5892026,0.019953703703704,0d 06:00:00,9d 14:45:00,1,neighbourhood,,B1
1769.0_0_B1,,D,Strathcona,Saskatchewan Drive - 99 ST to 104 ST,53.5251183,-113.4918044,0.004375,0d 06:00:00,9d 14:45:00,1,neighbourhood,,B1
1788.0_0_B1,,D,Brookside,144 ST-53-60 AVE,53.49467404,-113.5709562,0.030960648148148,0d 06:00:00,9d 14:45:00,1,neighbourhood,,B1
1805.0_0_B1,,D,Bulyea Heights,Terwilleger Drive: Rabbit Hill Road to 40 Ave.,53.47225564,-113.5782594,0.044849537037037,0d 06:00:00,9d 14:45:00,1,roadway,,B1
1816.0_0_B1,,D,Ramsey Heights,147 ST-45-51 AVE,53.48626437,-113.5731096,0.011724537037037,0d 06:00:00,9d 14:45:00,1,neighbourhood,,B1
1831.0_0_B1,,D,Grandview Heights,125 ST-62 AVE,53.50102494,-113.5538245,0.018252314814815,0d 06:00:00,9d 14:45:00,1,neighbourhood,,B1
1858.0_0_B1,,D,Brander Gardens,58 AVE-WHITEMUD DRIVE-BRANDER DRIVE,53.49595387,-113.5786278,0.0128125,0d 06:00:00,9d 14:45:00,1,neighbourhood,,B1
1862.0_0_B1,,D,Bulyea Heights,#200 BURTON ROAD,53.47468751,-113.5707626,0.006666666666667,0d 06:00:00,9d 14:45:00,1,neighbourhood,,B1
1871.0_0_B1,,D,Bulyea Heights,BULYEA ROAD-#900 BURLEY DRIVE,53.47207201,-113.5684263,0.011122685185185,0d 06:00:00,9d 14:45:00,1,neighbourhood,,B1
1904.0_0_B1,,D,Royal Gardens,West side 111 ST: 40 AVE - WHITEMUD DRIVE,53.476950065,-113.516986961,0.00818287037037,0d 06:00:00,9d 14:45:00,1,roadway,,B1
1909.0_0_B1,,D,MacTaggert/McGrath,Rabbit Hill rd. - MacTaggart Drive/Rabbit Hill Rd: 23 AVE - TERWILLEGAR BLVD,53.4473819,-113.5655477,0.017164351851852,0d 06:00:00,9d 14:45:00,1,neighbourhood,,B1
1917.0_0_B1,,D,Haddow,HEATH ROAD & RIVERBEND ROAD,53.46096072,-113.5969005,0.024768518518519,0d 06:00:00,9d 14:45:00,1,neighbourhood,,B1
1919.0_0_B1,,D,River Valley Whitemud,122 st - Cambell Bridge,53.50413648,-113.5460037,0.039583333333333,0d 06:00:00,9d 14:45:00,1,neighbourhood,,B1
1951.0_0_B1,,D,Twin Brooks,(#1510)119 St & Twin Brooks Close,53.44964893,-113.5379768,0.049814814814815,0d 06:00:00,9d 14:45:00,1,neighbourhood,,B1
1956.0_0_B1,,D,Blue Quill Estates,29 Avenue - 119 St. to 126 Street,53.46157156,-113.5422988,0.033333333333333,0d 06:00:00,9d 14:45:00,1,neighbourhood,,B1
1958.0_0_B1,,D,Ogilvie Ridge,Behind #182 Osland Drive to Creek,53.4616238,-113.5543173,0.006689814814815,0d 06:00:00,9d 14:45:00,1,neighbourhood,,B1
1990.0_0_B1,,D,Blue Quill,119 ST-WESTBROOK DRIVE-23AVE,53.46759644,-113.5038615,0.025856481481482,0d 06:00:00,9d 14:45:00,1,roadway,,B1
1995.0_0_B1,,D,Haddow,358 HEATH ROAD - DRY POND,53.4573543,-113.5977432,0.01568287037037,0d 06:00:00,9d 14:45:00,1,neighbourhood,,B1
1997.0_0_B1,,D,Steinhauer/Duggan,N/Center/S side 34 Ave.: 111St to Calgary Trail,53.46689691,-113.5068298,0.025636574074074,0d 06:00:00,9d 14:45:00,1,roadway,,B1
2009.0_0_B1,,D,Brander Gardens,15515-58 AVE,53.49623875,-113.5877917,0.007974537037037,0d 06:00:00,9d 14:45:00,1,neighbourhood,,B1
2011.0_0_B1,,D,MacEwan,West side 111 St. - behind #616 & #604 McAllister Loop to MacEwan Rd.SW,53.43092332,-113.5179678,0.005891203703704,0d 06:00:00,9d 14:45:00,1,neighbourhood,,B1
2032.0_0_B1,,D,Blackmud Creek,Ellerslie Road East of 111 St,53.42439209,-113.5110578,0.019224537037037,0d 06:00:00,9d 14:45:00,1,neighbourhood,,B1
2055.0_0_B1,,D,Garneau,Saskatchewan Drive -110 St to 114 St,53.52702145,-113.5179356,0.006770833333333,0d 06:00:00,9d 14:45:00,1,neighbourhood,,B1
2074.0_0_B1,,D,River Valley Whitemud,14141 - Fox Drive,53.50080356,-113.5631143,0.06849537037037,0d 06:00:00,9d 14:45:00,1,neighbourhood,,B1
2084.0_0_B1,,D,Haddow,1704 Haswell Cove,53.45234633,-113.5999402,0.00625,0d 06:00:00,9d 14:45:00,1,neighbourhood,,B1
2087.0_0_B1,,D,CALGARY TRAIL SOUTH,Calgary Trail W/S: 31 Ave - 34 Ave,53.465813671,-113.496226484,0.053148148148148,0d 06:00:00,9d 14:45:00,1,roadway,,B1
2106.0_0_B1,,D,South Edmonton Common,Gateway Boulevard to 102 St - 19 Ave.to 12 Ave,53.46126963,-113.4918437,0.015625,0d 06:00:00,9d 14:45:00,1,roadway,,B1
2163.0_0_B1,,D,Richford,9 Ave. - 110 St to 107 St.,53.4249641,-113.5076322,0.010416666666667,0d 06:00:00,9d 14:45:00,1,neighbourhood,,B1
2170.0_0_B1,,D,Rutherford,Rutherford Rd & 16ave SW,53.41853583,-113.5296777,0.014502314814815,0d 06:00:00,9d 14:45:00,1,neighbourhood,,B1
2183.0_0_B1,,D,Pleasantview,51 AVE ALLERD WAY - 110 ST,53.48935209,-113.4990454,0.021018518518519,0d 06:00:00,9d 14:45:00,1,neighbourhood,,B1
2184.0_0_B1,,D,Blue Quill,23 AVE-111-119 ST,53.4541648,-113.5252887,0.0625,0d 06:00:00,9d 14:45:00,1,roadway,,B1
2247.0_0_B1,,D,Twin Brooks,9B AVE/116-119 ST,53.43956223,-113.5365761,0.0071875,0d 06:00:00,9d 14:45:00,1,neighbourhood,,B1
2251.0_0_B1,,D,Henderson,"RIVERBEND ROAD-WEST TO RAVINE, West end of pipeline to Anthony Henday Bridge",53.46169964,-113.6004013,0.057395833333333,0d 06:00:00,9d 14:45:00,1,neighbourhood,,B1
2256.0_0_B1,,D,Bulyea Heights,Terwilleger Drive - BULYEA RD - 558 BUCHANAN RD,53.4675247,-113.5769858,0.01162037037037,0d 06:00:00,9d 14:45:00,1,roadway,,B1
2257.0_0_B1,,D,Richford,Ellerslie Rd (9 Ave. SW) -107 Street to Calgary Trail Ramp (north & south),53.42492122,-113.4996855,0.004791666666667,0d 06:00:00,9d 14:45:00,1,neighbourhood,,B1
2324.0_0_B1,,D,Ogilvie Ridge,OGILVIE BOULEVARD-OSLAND DRIVE,53.46295301,-113.5607303,0.048958333333333,0d 06:00:00,9d 14:45:00,1,neighbourhood,,B1
2346.0_0_B1,,D,Richford,10935 - 6 AVE SW & 8 Ave. - 108 St. SW,53.42646119,-113.5086368,0.014328703703704,0d 06:00:00,9d 14:45:00,1,neighbourhood,,B1
2347.0_0_B1,,D,Ogilvie Ridge,Behind #228 Ockden Place to behind #175 Osland Drive,53.46162662,-113.5604021,0.005439814814815,0d 06:00:00,9d 14:45:00,1,neighbourhood,,B1
2361.0_0_B1,,D,River Valley Whitemud,Whitemud Drive - Fox Drive,53.50331082,-113.5661867,0.101886574074074,0d 06:00:00,9d 14:45:00,1,neighbourhood,,B1
2363.0_0_B1,,D,Falconer Heights,#1124 FALCONER ROAD,53.46367949,-113.5875267,0.005833333333333,0d 06:00:00,9d 14:45:00,1,neighbourhood,,B1
2370.0_0_B1,,D,Twin Brooks,119 St: Twin Brooks Way - 9B Ave,53.44282737,-113.5407779,0.041666666666667,0d 06:00:00,9d 14:45:00,1,neighbourhood,,B1
2407.0_0_B1,,D,Henderson,RABBIT HILL RD S.TO HERRING-COOPER WAY,53.47416837,-113.6020612,0.003564814814815,0d 06:00:00,9d 14:45:00,1,neighbourhood,,B1
2408.0_0_B1,,D,Blue Quill/Ermineskin,"111 ST-23 Ave. to Saddleback Road (29A Ave.), Saddlebak Rd.",53.45719948,-113.5169395,0.044895833333333,0d 06:00:00,9d 14:45:00,1,roadway,,B1
2414.0_0_B1,,D,Henderson,HENDERSON ST-E OF HEPBURN AVE,53.4681872,-113.59682,0.085856481481482,0d 06:00:00,9d 14:45:00,1,neighbourhood,,B1
2429.0_0_B1,,D,Bulyea Heights,OEMING ROAD - 900 BURLEY DRIVE,53.46816033,-113.5674969,0.006585648148148,0d 06:00:00,9d 14:45:00,1,neighbourhood,,B1
2430.0_0_B1,,D,Strathcona,Saskatchewan Drive - 104 ST to 107 ST,53.52334735,-113.5015386,0.004166666666667,0d 06:00:00,9d 14:45:00,1,neighbourhood,,B1
2502.0_0_B1,,D,Aspen Gardens,39A AVE - ASPEN DRIVE WEST,53.47479387,-113.5516172,0.009166666666667,0d 06:00:00,9d 14:45:00,1,neighbourhood,,B1
2531.0_0_B1,,D,MacEwan,1650 Melrose Place,53.4319483,-113.5318355,0.016666666666667,0d 06:00:00,9d 14:45:00,1,neighbourhood,,B1
2537.0_0_B1,,D,Lansdowne,47 AVE-52B AVE,53.48655979,-113.5521502,0.02662037037037,0d 06:00:00,9d 14:45:00,1,neighbourhood,,B1
2559.0_0_B1,,D,Rideau Park,111 ST: 40 AVE to WHITEMUD DRIVE,53.47994832,-113.5154949,0.063900462962963,0d 06:00:00,9d 14:45:00,1,roadway,,B1
2567.0_0_B1,,D,Ramsey Heights,45 Ave. to 40 Ave. East of 147 St.,53.48066572,-113.5729237,0.044791666666667,0d 06:00:00,9d 14:45:00,1,roadway,,B1
2572.0_0_B1,,D,Blackburne,ADJACENT/BEHIND #729 BLACKWOOD CR.,53.42905014,-113.5005662,0.020833333333333,0d 06:00:00,9d 14:45:00,1,neighbourhood,,B1
2604.0_0_B1,,D,RiverValley Walterdale,High Level Bridge to Pumping Station,53.52840712,-113.5161759,0.012337962962963,0d 06:00:00,9d 14:45:00,1,neighbourhood,,B1
2635.0_0_B1,,D,Windermere,Windermere Blvd & Watson Landing,53.43809452,-113.626929,0.030763888888889,0d 06:00:00,9d 14:45:00,1,neighbourhood,,B1
2663.0_0_B1,,D,Falconer Heights,156 St. to Riverbend Road,53.46168881,-113.5921063,0.020833333333333,0d 06:00:00,9d 14:45:00,1,neighbourhood,,B1
2779.0_0_B1,,D,Greenfield,34 AVE 111 - 119 ST,53.46700039,-113.5282546,0.043194444444445,0d 06:00:00,9d 14:45:00,1,roadway,,B1
2783.0_0_B1,,D,Rutherford,1331& 1333 RUTHERFORD ROAD,53.42004531,-113.5343542,0.058333333333333,0d 06:00:00,9d 14:45:00,1,neighbourhood,,B1
2826.0_0_B1,,D,Terwilleger TOWNE,1697 Toane WYND,53.44666423,-113.5880112,0.020833333333333,0d 06:00:00,9d 14:45:00,1,neighbourhood,,B1
2827.0_0_B1,,D,Hodgson,Hayworth Crescent to Hudson Boulevard/Rabbit Hill Road - Trans Alta R.O.W. to Hodgson Blv.,53.4606655,-113.5639836,0.011354166666667,0d 06:00:00,9d 14:45:00,1,neighbourhood,,B1
2835.0_0_B1,,D,MacEwan,Ellerslie Rd (9 Ave. SW) N. & Center - SCHOOL to 111 Street,53.42502398,-113.5198188,0.008333333333333,0d 06:00:00,9d 14:45:00,1,neighbourhood,,B1
2875.0_0_B1,,D,Hodgson,504 HODGSON ROAD & HODGSON BOULEVARD,53.46002767,-113.557942,0.010775462962963,0d 06:00:00,9d 14:45:00,1,neighbourhood,,B1
2997.0_0_B1,,D,Brookside,55 AVE-143 ST,53.49160219,-113.5693168,0.065706018518519,0d 06:00:00,9d 14:45:00,1,neighbourhood,,B1
2998.0_0_B1,,D,Brander Gardens,5803-148 ST,53.49441798,-113.5738646,0.012418981481482,0d 06:00:00,9d 14:45:00,1,neighbourhood,,B1
3003.0_0_B1,,D,Whitemud Creek Ravine North,45 AVE-132 ST,53.48413627,-113.558145,0.02431712962963,0d 06:00:00,9d 14:45:00,1,neighbourhood,,B1
3077.0_0_B1,,D,Terwilleger South,7085 South Terwilleger Drive,53.44033541,-113.5719223,0.030833333333333,0d 06:00:00,9d 14:45:00,1,neighbourhood,,B1
3249.0_0_B1,,D,BLACKMUD CREEK RAVINE,W/S & C 111 ST: 23 AVE - BRIDGE (RAVINE),53.447934039,-113.516023976,0.022731481481482,0d 06:00:00,9d 14:45:00,1,roadway,,B1
3339.0_0_B1,,D,GREENFIELD,111 ST - 40 AVE - 34AVE,53.469738257,-113.517056628,0.007152777777778,0d 06:00:00,9d 14:45:00,1,roadway,,B1
3350.0_0_B1,,D,Twin Brooks,111 ST: BRIDGE (RAVINE) - South to 9 AVE & bus stop,53.44303232,-113.5176947,0.03244212962963,0d 06:00:00,9d 14:45:00,1,roadway,,B1
3371.0_0_B1,,D,Sweet Grass,111 ST - 34 AVE - 29A AVE/Saddleback RD,53.464060026,-113.517121623,0.043668981481482,0d 06:00:00,9d 14:45:00,1,roadway,,B1
3378.0_0_B1,,D,Leger,2007 - Leger Road,53.45546943,-113.5804006,0.031724537037037,0d 06:00:00,9d 14:45:00,1,neighbourhood,,B1
3444.0_0_B1,,D,Terwilleger TOWNE,Tory Rd. - Tory Gate to Behind #2431 Tegler Green,53.45057907,-113.5716099,0.047916666666667,0d 06:00:00,9d 14:45:00,1,neighbourhood,,B1
3499.0_0_B1,,D,Brander Gardens,53 AVE-RIVERBEND ROAD,53.49231021,-113.5754612,0.155231481481482,0d 06:00:00,9d 14:45:00,1,neighbourhood,,B1
3514.0_0_B1,,D,Henderson,across from #509 - to #455 Heffeerman Dr.,53.47368916,-113.601687,0.006956018518519,0d 06:00:00,9d 14:45:00,1,neighbourhood,,B1
3527.0_0_B1,,D,Ermineskin,23 AVE-104-111 ST,53.45432673,-113.5031819,0.067337962962963,0d 06:00:00,9d 14:45:00,1,roadway,,B1
3540.0_0_B1,,D,Rhatigan Ridge,RHATIGAN ROAD EAST-RIVERBEND ROAD,53.47417407,-113.5851729,0.146481481481481,0d 06:00:00,9d 14:45:00,1,neighbourhood,,B1
3544.0_0_B1,,D,Terwilleger TOWNE,1765 Tomlinson Common,53.44893029,-113.5850845,0.063981481481482,0d 06:00:00,9d 14:45:00,1,neighbourhood,,B1
3552_0_0_B1,,D,Terwilleger TOWNE,Todd Landing to Talor Close,53.44867113,-113.5741307,0.080092592592593,2d 06:00:00,2d 14:45:00,1,neighbourhood,,B1
3552_1_0_B1,,D,Terwilleger TOWNE,Todd Landing to Talor Close,53.44867113,-113.5741307,0.080092592592593,2d 06:00:00,2d 14:45:00,1,neighbourhood,,B1
3552_2_0_B1,,D,Terwilleger TOWNE,Todd Landing to Talor Close,53.44867113,-113.5741307,0.080092592592593,2d 06:00:00,2d 14:45:00,1,neighbourhood,,B1
3579.0_0_B1,,D,Magrath,Rabbit Hill Rd - Mullen Rd,53.43852136,-113.5689186,0.056516203703704,0d 06:00:00,9d 14:45:00,1,neighbourhood,,B1
3685.0_0_B1,,D,Ellerslie Industrial,Ellerslie Road & Gateway Boulevard,53.40804985,-113.5015587,0.025914351851852,0d 06:00:00,9d 14:45:00,1,roadway,,B1
3754.0_0_B1,,D,Hodgson,TRANS ALTA R.O.W. to #907 Hollingsworth Bend,53.45718006,-113.5531177,0.027233796296296,0d 06:00:00,9d 14:45:00,1,neighbourhood,,B1
3770.0_0_B1,,D,Hodgson,503 HODGSON ROAD & HODGSON BOULEVARD,53.45832421,-113.5585573,0.072002314814815,0d 06:00:00,9d 14:45:00,1,neighbourhood,,B1
3791.0_0_B1,,D,Grandview Heights,122 St: 53 Ave to 63 Ave.,53.49547578,-113.5411537,0.005358796296296,0d 06:00:00,9d 14:45:00,1,roadway,,B1
3802.0_0_B1,,D,Brander Gardens,150 ST-51-58 AVE,53.49270487,-113.5802592,0.010416666666667,0d 06:00:00,9d 14:45:00,1,neighbourhood,,B1
3834.0_0_B1,,D,Empire Park,North side CPR TRACKS - 106 ST,53.480840188,-113.497345967,0.010532407407407,0d 06:00:00,9d 14:45:00,1,roadway,,B1
3850.0_0_B1,,D,Terwilleger TOWNE,BTWN 4237 & 4233 TERWILLEGER VISTA,53.44785208,-113.5826431,0.024641203703704,0d 06:00:00,9d 14:45:00,1,neighbourhood,,B1
3857.0_0_B1,,D,Leger,745 Leger Way/765 Leger WAY/Leger Rd - 23 Ave to Leger Way,53.45868831,-113.5819213,0.152476851851852,0d 06:00:00,9d 14:45:00,1,neighbourhood,,B1
3864.0_0_B1,,D,Bearspaw,(Bearspaw Drive West)11-15 AVE & 109-110A ST,53.44307737,-113.5081567,0.090416666666667,0d 06:00:00,9d 14:45:00,1,neighbourhood,,B1
3884.0_0_B1,,D,Leger,TERWILLEGAR DR - TRANSALTA RIGHT OF WAY,53.466594288,-113.57476875,0.009895833333333,0d 06:00:00,9d 14:45:00,1,roadway,,B1
3942.0_0_B1,,D,Ogilvie Ridge,BULYEA ROAD - TRANSALTA RIGHT OF WAY,53.46441683,-113.5707061,0.034212962962963,0d 06:00:00,9d 14:45:00,1,roadway,,B1
3973.0_0_B1,,D,MacEwan,behind #1246 McAllister Way to MacEwan Road,53.42951061,-113.5308588,0.059398148148148,0d 06:00:00,9d 14:45:00,1,neighbourhood,,B1
4069.0_0_B1,,D,MacEwan,Various,53.42876143,-113.534152,0.092372685185185,0d 06:00:00,9d 14:45:00,1,neighbourhood,,B1
4116.0_0_B1,,D,Blackmud Creek,Behind #1544 Blackmore Way Sw,53.41808665,-113.5030939,0.015393518518519,0d 06:00:00,9d 14:45:00,1,neighbourhood,,B1
4149.0_0_B1,,D,Rutherford,James Mowat Tr - Rutherford Road,53.42102786,-113.516886,0.03125,0d 06:00:00,9d 14:45:00,1,neighbourhood,,B1
4151.0_0_B1,,D,Bearspaw,"11 AVE-108 ST, Bearspaw Drive East to Pipeline R.O.W.",53.44370508,-113.5042992,0.015787037037037,0d 06:00:00,9d 14:45:00,1,neighbourhood,,B1
4203.0_0_B1,,D,MacTaggert,from 351 Magrath Blv. To 3816 MacNeil Heath,53.44646359,-113.5586639,0.017164351851852,0d 06:00:00,9d 14:45:00,1,neighbourhood,,B1
4254.0_0_B1,,D,Skyrattler,23 AVE-111-119 ST,53.45382971,-113.524939,0.020833333333333,0d 06:00:00,9d 14:45:00,1,roadway,,B1
4304.0_0_B1,,D,Aspen Gardens,41 AVE-ASPEN DRIVE WEST,53.47717103,-113.552654,0.014166666666667,0d 06:00:00,9d 14:45:00,1,neighbourhood,,B1
4330.0_0_B1,,D,Ambleside,Ambleside Drive - Armitage Cescent,53.43232913,-113.6038227,0.040439814814815,0d 06:00:00,9d 14:45:00,1,neighbourhood,,B1
4357.0_0_B1,,D,Carter Crest,Rabbit Hill Road - Terwillegar Drive,53.46160218,-113.5773678,0.030416666666667,0d 06:00:00,9d 14:45:00,1,neighbourhood,,B1
4377.0_0_B1,,D,Terwilleger South,Rabbit Hill Rd. to South Terwilleger Drive,53.43953299,-113.5684221,0.005289351851852,0d 06:00:00,9d 14:45:00,1,neighbourhood,,B1
4380.0_0_B1,,D,Blackmud Creek,Blackmud Creek Dr.:111 St - 975 Blackmud Creek Cr.,53.4195739,-113.5143997,0.129606481481481,0d 06:00:00,9d 14:45:00,1,neighbourhood,,B1
4395.0_0_B1,,D,Rutherford,James Mowat Trail (111 St.) to Rutherford Road -Blackmud Creek Drive to 21 Ave. SW,53.41799558,-113.5193239,0.104166666666667,0d 06:00:00,9d 14:45:00,1,neighbourhood,,B1
4451.0_0_B1,,D,Terwilleger TOWNE,23 Ave. - Rabbit Hill rd.,53.4549988,-113.5794313,0.02974537037037,0d 06:00:00,9d 14:45:00,1,roadway,,B1
4462.0_0_B1,,D,Steinhauer,29A AVE-104-111 ST,53.46158341,-113.5056006,0.13275462962963,0d 06:00:00,9d 14:45:00,1,neighbourhood,,B1
4517.0_0_B1,,D,Allard,Allard Link & Adamson Dr,53.40280072,-113.5180914,0.027604166666667,0d 06:00:00,9d 14:45:00,1,neighbourhood,,B1
4528.0_0_B1,,D,Terwillegar South,156st & South Terwillegar Blvd,53.44023714,-113.5837237,0.02755787037037,0d 06:00:00,9d 14:45:00,1,neighbourhood,,B1
4530.0_0_B1,,D,Terwillegar South,156st & South Terwillegar Blvd,53.43951349,-113.58745,0.005104166666667,0d 06:00:00,9d 14:45:00,1,neighbourhood,,B1
4542.0_0_B1,,D,MacTaggert,4032 Mactaggert Drive,53.43886273,-113.5612599,0.011215277777778,0d 06:00:00,9d 14:45:00,1,neighbourhood,,B1
4590.0_0_B1,,D,Ambleside,2035 Armitage Green SW,53.4298755,-113.6043016,0.015520833333333,0d 06:00:00,9d 14:45:00,1,neighbourhood,,B1
4668.0_0_B1,,D,Windermere North,Whitelaw Gate - 3250 Whitelaw Drive & Btw. 3427 West Landing & 3320 West Court,53.44298834,-113.6089682,0.017789351851852,0d 06:00:00,9d 14:45:00,1,neighbourhood,,B1
4679.0_0_B1,,D,MacTaggert,4032 Mactaggert Drive,53.44011896,-113.5627694,0.013784722222222,0d 06:00:00,9d 14:45:00,1,neighbourhood,,B1
4735.0_0_B1,,D,MacTaggert,from Pond to 4073 Mactaggert Drive,53.4395093,-113.558787,0.006666666666667,0d 06:00:00,9d 14:45:00,1,neighbourhood,,B1
4754.0_0_B1,,D,Hodgson,23 Ave. - Rabbit Hill Road to Bridge,53.45423656,-113.5605874,0.011354166666667,0d 06:00:00,9d 14:45:00,1,roadway,,B1
4755.0_0_B1,,D,Leger,Road Buffer 23 Ave.- Terwilleger Drive to Rabbit Hill Road,53.45499923,-113.577384,0.027372685185185,0d 06:00:00,9d 14:45:00,1,roadway,,B1
5083.0_0_B1,,D,MacTaggert,Maynard Way to 4132 Mactaggert Drive,53.44279028,-113.5581513,0.0375,0d 06:00:00,9d 14:45:00,1,neighbourhood,,B1
5544.0_0_B1,,D,Terwillegar South,South Terwillegar Dr & Shaske Dr,53.43681285,-113.5782311,0.050706018518519,0d 06:00:00,9d 14:45:00,1,neighbourhood,,B1
5545.0_0_B1,,D,Terwillegar South,156st & South Terwillegar Blvd,53.43914772,-113.5855744,0.014918981481482,0d 06:00:00,9d 14:45:00,1,neighbourhood,,B1
6026.0_0_B1,,D,Haddow,2069 HADDOW DRIVE,53.45361451,-113.595946,0.161828703703704,0d 06:00:00,9d 14:45:00,1,neighbourhood,,B1
6167.0_0_B1,,D,Ambleside,Ellerslie Rd,53.42621144,-113.5736491,0.005069444444444,0d 06:00:00,9d 14:45:00,1,neighbourhood,,B1
7047.0_0_B1,,D,Windermere,171 Street - Wasburn Drive,53.43026811,-113.6181138,0.026134259259259,0d 06:00:00,9d 14:45:00,1,neighbourhood,,B1
7048.0_0_B1,,D,Terwilleger TOWNE,Terwillegar Common & Towne Center Blvd,53.44557411,-113.5760306,0.012789351851852,0d 06:00:00,9d 14:45:00,1,neighbourhood,,B1
7269.0_0_B1,,D,Chappelle Gardens,141 St south past park NEW,53.4062438,-113.5707427,0.037349537037037,0d 06:00:00,9d 14:45:00,1,neighbourhood,,B1
7409.0_0_B1,,D,MacTaggert,Mullen Rd & Mullen Way NEW,53.43527717,-113.5699569,0.01875,0d 06:00:00,9d 14:45:00,1,neighbourhood,,B1
7469.0_0_B1,,D,Rutherford,#1524 Rutherford Road,53.415095585,-113.537049321,0.019409722222222,0d 06:00:00,9d 14:45:00,1,neighbourhood,,B1
7569.0_0_B1,,D,Ellerslie SW,Ellerslie Road - 100 Street SW,53.42584743,-113.4918388,0.021053240740741,0d 06:00:00,9d 14:45:00,1,roadway,,B1
7649.0_0_B1,,D,Lendrum Place,51 Ave - 11504 St,53.48884512,-113.5305284,0.02537037037037,0d 06:00:00,9d 14:45:00,1,neighbourhood,,B1
7913.0_0_B1,,D,Allard,Adamson Dr SW & Adamson Terrace SW,53.39985703,-113.5160464,0.013865740740741,0d 06:00:00,9d 14:45:00,1,neighbourhood,,B1
7953.0_0_B1,,D,Chappelle,Chappelle Blvd & 28ave SW,53.40961566,-113.5725276,0.016481481481482,0d 06:00:00,9d 14:45:00,1,neighbourhood,,B1
8063.0_0_B1,,D,Windermere,173st & 9ave SW,53.4241814,-113.6194316,0.006180555555556,0d 06:00:00,9d 14:45:00,1,neighbourhood,,B1
8099.0_0_B1,,D,Allard,30ave SW & Allard Gate SW,53.40340524,-113.5331111,0.022881944444444,0d 06:00:00,9d 14:45:00,1,neighbourhood,,B1
8466.0_0_B1,,D,Windermere,Wheaton Drive - Windermere Wynd,53.44601712,-113.6187991,0.0096875,0d 06:00:00,9d 14:45:00,1,neighbourhood,,B1
8645.0_0_B1,,D,Bearspaw,10 AVE & 107 ST TO 104 ST & 19 AVE,53.44587489,-113.4974082,0.025810185185185,0d 06:00:00,9d 14:45:00,1,neighbourhood,,B1
8648.0_0_B1,,D,Bearspaw,Bearspaw Lake to 104 St &20 Ave,53.44567646,-113.5040594,0.104166666666667,0d 06:00:00,9d 14:45:00,1,neighbourhood,,B1
9126.0_0_B1,,D,Allard,Allard Blvd - Agar Green SW,53.40001977,-113.5283453,0.015555555555556,0d 06:00:00,9d 14:45:00,1,neighbourhood,,B1
9646.0_0_B1,,D,Ambleside,6004 Currents Drive (Behind Cabela's),53.439613525,-113.60487388,0.01318287037037,0d 06:00:00,9d 14:45:00,1,neighbourhood,,B1
981890.0_0_B1,,D,River Valley Whitemud,7000 143 Street NW,53.50133909,-113.5795463,0.020347222222222,0d 06:00:00,9d 14:45:00,1,neighbourhood,,B1
9965.0_0_B1,,D,Belgravia/River Valley Whitemud,116 ST - KEILOR ROAD,53.507653935,-113.540868636,0.057071759259259,0d 06:00:00,9d 14:45:00,1,neighbourhood,,B1
9966.0_0_B1,,D,Blackmud Creek,BOULEVARD & TOP OF BANK WALKWAY,53.416053641,-113.512862812,0.022291666666667,0d 06:00:00,9d 14:45:00,1,neighbourhood,,B1
9994.0_0_B1,,D,Windermere,SWMF - 4163 Whispering River Drive,53.450936001,-113.613811019,0.007905092592593,0d 06:00:00,9d 14:45:00,1,neighbourhood,,B1
9999.0_0_B1,,D,Windermere,SWMF 5114 Woolsey Link,53.448671382,-113.611819629,0.024270833333333,0d 06:00:00,9d 14:45:00,1,neighbourhood,,B1
10008.0_0_B1,,D,Windermere,East of Whispering River Dr.,53.450275686,-113.609523269,0.009548611111111,0d 06:00:00,9d 14:45:00,1,neighbourhood,,B1
10018.0_0_B1,,D,Windermere,738 Windermere Wynd,53.441214417,-113.626032458,0.010856481481482,0d 06:00:00,9d 14:45:00,1,neighbourhood,,B1
10032.0_0_B1,,D,Ambleside,3604 Allan Dr SW,53.42862657,-113.594079171,0.013761574074074,0d 06:00:00,9d 14:45:00,1,neighbourhood,,B1
10033.0_0_B1,,D,Chappelle Area,3346 Cutler Crescent,53.40656046,-113.566904756,0.011550925925926,0d 06:00:00,9d 14:45:00,1,neighbourhood,,B1
10074.0_0_B1,,D,Tamarack,17 St and 28 Ave NW,53.4588433,-113.3685124,0.004375,0d 06:00:00,9d 14:45:00,1,neighbourhood,,B1
10075.0_0_B1,,D,Tamarack,17 St and 28 Ave NW,53.46065597,-113.3685558,0.0096875,0d 06:00:00,9d 14:45:00,1,neighbourhood,,B1
10085.0_0_B1,,D,Chappele Area,1137 Chappelle Blvd SW,53.40598414,-113.5730267,0.025706018518519,0d 06:00:00,9d 14:45:00,1,neighbourhood,,B1
10092.0_0_B1,,D,Windermere,16 Ave NW on both sides of Whispering River Dr NW,53.44669002,-113.6096593,0.007488425925926,0d 06:00:00,9d 14:45:00,1,neighbourhood,,B1
10104.0_0_B1,,D,Chappele Area,5280 Chappelle Road SW,53.40102631,-113.5725043,0.024131944444444,0d 06:00:00,9d 14:45:00,1,neighbourhood,,B1
64.0_0_B1,,D,OTTEWELL,74 ST-96B AVE,53.53620179,-113.440336,0.009450231481481,0d 06:00:00,9d 14:45:00,1,neighbourhood,,B1
103.0_0_B1,,D,AVONMORE,89 ST-75 AVE,53.51147159,-113.4623148,0.005270833333333,0d 06:00:00,9d 14:45:00,1,neighbourhood,,B1
787.0_0_B1,,D,SUMMERSIDE,1202 Summerside Drive,53.42230666,-113.4668491,0.01183275462963,0d 06:00:00,9d 14:45:00,1,neighbourhood,,B1
132.0_0_B1,,D,KENILWORTH,NORTH OF 82 AVE-50-64 ST,53.51875284,-113.4242616,0.017316550925926,0d 06:00:00,9d 14:45:00,1,neighbourhood,,B1
642.0_0_B1,,D,LARKSPUR,39-41 AVE & 23 ST-TRANSALTA R.O.W.,53.47865242,-113.3791748,0.013776041666667,0d 06:00:00,9d 14:45:00,1,neighbourhood,,B1
128.0_0_B1,,D,STRATHCONA INDUSTRIAL PARK,N/S 34 AVE: 103 ST - 91 ST,53.4660411,-113.4728329,0.013150462962963,0d 06:00:00,9d 14:45:00,1,roadway,,B1
1658.0_0_B1,,D,CAPILANO,108 AVE-67 ST,53.55564341,-113.4297217,0.019539351851852,0d 06:00:00,9d 14:45:00,1,neighbourhood,,B1
468.0_0_B1,,D,CRAWFORD PLAINS,42 ST-12-10 AVE,53.43896847,-113.4071036,0.027658564814815,0d 06:00:00,9d 14:45:00,1,neighbourhood,,B1
1168.0_0_B1,,D,Belgravia,77 AVE-118 ST,53.51263052,-113.5349077,0.00859837962963,0d 06:00:00,9d 14:45:00,1,neighbourhood,,B1
102.0_0_B1,,D,Terwilleger TOWNE,1960 TOMLINSON SQUARE,53.45203263,-113.5855441,0.028696759259259,0d 06:00:00,9d 14:45:00,1,neighbourhood,,B1
106.0_1_B1,,D,RITCHIE,98 ST-77 AVE,53.51372262,-113.4813008,0.00400462962963,10d 06:00:00,20d 14:45:00,1,neighbourhood,,B1
181.0_1_B1,,D,CAPILANO,109 AVE-65 ST,53.5572473,-113.4252652,0.022916666666667,10d 06:00:00,20d 14:45:00,1,neighbourhood,,B1
207.0_1_B1,,D,ELLERSLIE,N/S & C ELLERSLIE RD: 91 ST - EDWARDS DRI,53.4249867,-113.4648967,0.006643518518519,10d 06:00:00,20d 14:45:00,1,roadway,,B1
270.0_1_B1,,D,KENILWORTH,89 Ave & 71 St,53.52290707,-113.4354382,0.093958333333333,10d 06:00:00,20d 14:45:00,1,neighbourhood,,B1
309.0_1_B1,,D,FOREST HEIGHTS,82 ST-103 AVE,53.54472687,-113.4532601,0.035,10d 06:00:00,20d 14:45:00,1,neighbourhood,,B1
382.0_1_B1,,D,BONNIE DOON,93 ST-92 AVE,53.52806581,-113.4707322,0.004583333333333,10d 06:00:00,20d 14:45:00,1,neighbourhood,,B1
511_0_1_B1,,D,CLOVERDALE,85 ST-STRATHEARN DRIVE,53.53669821,-113.4618982,0.055713734567901,14d 06:00:00,14d 14:45:00,1,neighbourhood,,B1
511_1_1_B1,,D,CLOVERDALE,85 ST-STRATHEARN DRIVE,53.53669821,-113.4618982,0.055713734567901,14d 06:00:00,14d 14:45:00,1,neighbourhood,,B1
511_2_1_B1,,D,CLOVERDALE,85 ST-STRATHEARN DRIVE,53.53669821,-113.4618982,0.055713734567901,14d 06:00:00,14d 14:45:00,1,neighbourhood,,B1
568.0_1_B1,,D,GAINER INDUSTRIAL,50 ST BTWN 76 & 82 AVE,53.51698107,-113.4182013,0.008229166666667,10d 06:00:00,20d 14:45:00,1,neighbourhood,,B1
590.0_1_B1,,D,GOLD BAR,47 ST & 106B AVE,53.55320893,-113.4135622,0.031875,10d 06:00:00,20d 14:45:00,1,neighbourhood,,B1
596.0_1_B1,,D,PYLYPOW INDUSTRIAL,50 St: 70 Ave - Whitemud Drive Whitemud Drive,53.49914123,-113.4180896,0.01849537037037,10d 06:00:00,20d 14:45:00,1,roadway,,B1
597.0_1_B1,,D,TWEDDLE PLACE,W/S 76 ST: 38 AVE - WHITEMUD DRIVE,53.48042908,-113.4525123,0.049872685185185,10d 06:00:00,20d 14:45:00,1,roadway,,B1
643.0_1_B1,,D,KING EDWARD PARK,77 AVE-73 ST,53.51372686,-113.4410012,0.004108796296296,10d 06:00:00,20d 14:45:00,1,neighbourhood,,B1
777.0_1_B1,,D,CRAWFORD PLAINS,Road Allowance,53.44096431,-113.3942473,0.041041666666667,10d 06:00:00,20d 14:45:00,1,roadway,,B1
789.0_1_B1,,D,TIPASKAN,NORTH SIDE 28 AVE & LAKEWOOD RD WEST -,53.45895751,-113.4568045,0.007141203703704,10d 06:00:00,20d 14:45:00,1,roadway,,B1
883.0_1_B1,,D,CLOVERDALE,9812 96A Street NW,53.53870576,-113.4795739,0.145833333333333,10d 06:00:00,20d 14:45:00,1,neighbourhood,,B1
947.0_1_B1,,D,ARGYLL,ARGYLL RD N/S BTWN 86 ST & 83 ST,53.50190593,-113.4560504,0.012916666666667,10d 06:00:00,20d 14:45:00,1,neighbourhood,,B1
976.0_1_B1,,D,BISSET,SOUTH SIDE 23 AVE BTWN 38-34 ST,53.45366325,-113.3962258,0.026458333333333,10d 06:00:00,20d 14:45:00,1,roadway,,B1
979.0_1_B1,,D,MEYONOHK,WEST SIDE MILLWOODS RD-BTWN-28-23 AVE,53.45526058,-113.448311,0.014293981481482,10d 06:00:00,20d 14:45:00,1,roadway,,B1
996.0_1_B1,,D,GREENVIEW,GREENOCH CRESCENT-W 50 ST-GOLF COURS,53.47794898,-113.4207306,0.0125,10d 06:00:00,20d 14:45:00,1,neighbourhood,,B1
1313.0_1_B1,,D,LARKSPUR,37-38 AVE & 32-34 ST,53.47213596,-113.3919408,0.033333333333333,10d 06:00:00,20d 14:45:00,1,neighbourhood,,B1
1450.0_1_B1,,D,RICHFIELD,BTWN-85-91 ST,53.46912852,-113.4624634,0.045150462962963,10d 06:00:00,20d 14:45:00,1,neighbourhood,,B1
1493.0_1_B1,,D,MENISA,EAST OF 80 ST & SOUTH OF 10 AVE,53.43871656,-113.4530145,0.046666666666667,10d 06:00:00,20d 14:45:00,1,neighbourhood,,B1
1508.0_1_B1,,D,STRATHCONA,85 AVE-104 ST,53.52136465,-113.4969562,0.003483796296296,10d 06:00:00,20d 14:45:00,1,neighbourhood,,B1
1612.0_1_B1,,D,MICHAELS PARK,MILLBOURNE ROAD E-70 ST,53.4792581,-113.4489091,0.15625,10d 06:00:00,20d 14:45:00,1,neighbourhood,,B1
1623.0_1_B1,,D,BISSET,NORTH SIDE 23 AVE-BTWN MILLWOODS RD E- 38 ST,53.45485526,-113.4033495,0.0375,10d 06:00:00,20d 14:45:00,1,roadway,,B1
1778.0_1_B1,,D,SAKAW,11 AVE-58 ST,53.44264997,-113.4290041,0.092291666666667,10d 06:00:00,20d 14:45:00,1,neighbourhood,,B1
1814.0_1_B1,,D,LARKSPUR,43A AVE - WHITEMUD DRIVE WEST OF 23 ST,53.48249405,-113.3806965,0.064583333333333,10d 06:00:00,20d 14:45:00,1,neighbourhood,,B1
1825.0_1_B1,,D,MILL CREEK RAVINE SOUTH,76 AVE & 89 - 95 ST,53.51228056,-113.4682563,0.009525462962963,10d 06:00:00,20d 14:45:00,1,neighbourhood,,B1
1837.0_1_B1,,D,SATOO,SOUTH SIDE&C 23 AVE-BTWN 91-85 ST,53.45169814,-113.4632398,0.007372685185185,10d 06:00:00,20d 14:45:00,1,roadway,,B1
1854.0_1_B1,,D,AVONMORE,80 ST-76 AVE,53.51080393,-113.4492502,0.06130787037037,10d 06:00:00,20d 14:45:00,1,neighbourhood,,B1
1867_0_1_B1,,D,ARGYLL,88 ST-69 AVE,53.50596204,-113.4637143,0.097928240740741,11d 06:00:00,11d 14:45:00,1,neighbourhood,,B1
1867_1_1_B1,,D,ARGYLL,88 ST-69 AVE,53.50596204,-113.4637143,0.097928240740741,11d 06:00:00,11d 14:45:00,1,neighbourhood,,B1
1867_2_1_B1,,D,ARGYLL,88 ST-69 AVE,53.50596204,-113.4637143,0.097928240740741,11d 06:00:00,11d 14:45:00,1,neighbourhood,,B1
1868.0_1_B1,,D,MILL CREEK RAVINE SOUTH,70-75 AVE - 85ST TO RAVINE,53.50873972,-113.4609116,0.034189814814815,10d 06:00:00,20d 14:45:00,1,neighbourhood,,B1
1870.0_1_B1,,D,CORONET ADDITION INDUSTRIAL,ISLAND NE CORNER 75 ST & ARGYLE RD.,53.50977333,-113.4432727,0.00994212962963,10d 06:00:00,20d 14:45:00,1,neighbourhood,,B1
1889.0_1_B1,,D,TIPASKAN,WS/C 91 ST BTWN 28 & 34 AVE,53.46193542,-113.4670981,0.053541666666667,10d 06:00:00,20d 14:45:00,1,roadway,,B1
1905.0_1_B1,,D,MCINTYRE INDUSTRIAL,91 ST BTWN 51 AVE & WHITEMUD DRIVE,53.48513048,-113.4663823,0.038043981481482,10d 06:00:00,20d 14:45:00,1,roadway,,B1
1980.0_1_B1,,D,DALY GROVE,WEST SIDE 34 ST 18-23 AVE & WEST SIDE 34 ST 16A - 18 AVE,53.44893668,-113.3941282,0.019166666666667,10d 06:00:00,20d 14:45:00,1,roadway,,B1
2016.0_1_B1,,D,GOLD BAR,EAST OF 42 AVE BTWN 102 & 106B AVE,53.54874589,-113.4057399,0.016608796296296,10d 06:00:00,20d 14:45:00,1,neighbourhood,,B1
2085.0_1_B1,,D,ARGYLL,ARGYLL RD N/S BTWN 91 ST & 86 ST,53.50013044,-113.4623617,0.005833333333333,10d 06:00:00,20d 14:45:00,1,neighbourhood,,B1
2156.0_1_B1,,D,MENISA,KNOTTWOOD ROAD S-75 ST,53.44317506,-113.448125,0.017141203703704,10d 06:00:00,20d 14:45:00,1,neighbourhood,,B1
2165.0_1_B1,,D,MORRIS INDUSTRIAL,BTWN 75 & 34 ST INCLUDING 82 AVE - 71 ST,53.51663277,-113.4035534,0.019583333333333,10d 06:00:00,20d 14:45:00,1,roadway,,B1
2193.0_1_B1,,D,MILL CREEK RAVINE SOUTH,EAST 98 ST - RAVINE & 92 AVE,53.52148967,-113.4750752,0.017708333333333,10d 06:00:00,20d 14:45:00,1,neighbourhood,,B1
2194.0_1_B1,,D,HAZELDEAN,NORTH 63-66 AVE - 89-92 ST,53.50096985,-113.4677927,0.033229166666667,10d 06:00:00,20d 14:45:00,1,neighbourhood,,B1
2217.0_1_B1,,D,MILL CREEK RAVINE NORTH,95 ST-88 AVE,53.5254877,-113.4743503,0.075150462962963,10d 06:00:00,20d 14:45:00,1,neighbourhood,,B1
2233.0_1_B1,,D,LEE RIDGE,SOUTH SIDE/C 34 AVE BTWN MILLWOODS RD & 66 ST,53.46495912,-113.4432916,0.01875,10d 06:00:00,20d 14:45:00,1,roadway,,B1
2250.0_1_B1,,D,HILLVIEW,54-58 ST & 34 AVE-38 AVE,53.46914599,-113.4233464,0.007025462962963,10d 06:00:00,20d 14:45:00,1,neighbourhood,,B1
2255.0_1_B1,,D,MILL WOODS TOWN CENTRE,SOUTH SIDE/C 23 AVE-BTWN 66-50 ST,53.4537107,-113.4285839,0.022083333333333,10d 06:00:00,20d 14:45:00,1,roadway,,B1
2261.0_1_B1,,D,MILL CREEK RAVINE NORTH,98 AVE-CONNORS ROAD-99 ST,53.53647744,-113.4816691,0.10525462962963,10d 06:00:00,20d 14:45:00,1,neighbourhood,,B1
2270.0_1_B1,,D,WILD ROSE,W/S 17 St. South of 38 Ave,53.47390517,-113.3689558,0.116041666666667,10d 06:00:00,20d 14:45:00,1,roadway,,B1
2339.0_1_B1,,D,POLLARD MEADOWS,43 ST BTWN MILLWOODS RD & 17 AVE,53.44391005,-113.4070047,0.004791666666667,10d 06:00:00,20d 14:45:00,1,neighbourhood,,B1
2380.0_1_B1,,D,CAPILANO,109 AVE-46 ST,53.55622078,-113.4142713,0.004583333333333,10d 06:00:00,20d 14:45:00,1,neighbourhood,,B1
2386.0_1_B1,,D,FOREST HEIGHTS,WEST SIDE 75 ST-BTWN-98-101 AVE,53.5388941,-113.4436549,0.01125,10d 06:00:00,20d 14:45:00,1,neighbourhood,,B1
2391.0_1_B1,,D,CLOVERDALE,96A ST - CONNORS ROAD,53.53403064,-113.479064,0.097395833333333,10d 06:00:00,20d 14:45:00,1,neighbourhood,,B1
2409.0_1_B1,,D,HAZELDEAN,98 ST/70-72 AVE + P.U.L. S/W 99ST&73AVE,53.50761008,-113.4843723,0.0425,10d 06:00:00,20d 14:45:00,1,neighbourhood,,B1
2410.0_1_B1,,D,RITCHIE,98 ST-79 AVE,53.51560934,-113.4812774,0.004166666666667,10d 06:00:00,20d 14:45:00,1,neighbourhood,,B1
2448.0_1_B1,,D,EKOTA,KNOTTWOOD RD E-19 AVE,53.44899765,-113.441916,0.057037037037037,10d 06:00:00,20d 14:45:00,1,neighbourhood,,B1
2469.0_1_B1,,D,STRATHCONA INDUSTRIAL PARK,WS/C 91 ST BTWN 34 & 39 AVE,53.46979343,-113.467082,0.10625,10d 06:00:00,20d 14:45:00,1,roadway,,B1
2492.0_1_B1,,D,BISSET,NORTH OF 28 AVE-BTWN MILLWOODS RD-37 S,53.45955007,-113.4022907,0.009143518518519,10d 06:00:00,20d 14:45:00,1,neighbourhood,,B1
2503.0_1_B1,,D,TWEDDLE PLACE,East of School: 77 St & 40 Ave,53.47648911,-113.4532758,0.043391203703704,10d 06:00:00,20d 14:45:00,1,neighbourhood,,B1
2577.0_1_B1,,D,TIPASKAN,NORTH SIDE 28 AVE BTWN 91 ST & LAKEWOO,53.45897563,-113.4631064,0.01375,10d 06:00:00,20d 14:45:00,1,roadway,,B1
2581.0_1_B1,,D,TIPASKAN,NORTH SIDE 28 AVE & 79 ST - MILLWOODS RD,53.45876841,-113.450742,0.006087962962963,10d 06:00:00,20d 14:45:00,1,roadway,,B1
2610.0_1_B1,,D,BONNIE DOON,96A-97 ST-93-95 AVE,53.53179874,-113.4797255,0.006226851851852,10d 06:00:00,20d 14:45:00,1,neighbourhood,,B1
2626.0_1_B1,,D,CRAWFORD PLAINS,W/S & C 50 ST BTWN 11-13 AVE,53.44063989,-113.4187295,0.012037037037037,10d 06:00:00,20d 14:45:00,1,roadway,,B1
2632.0_1_B1,,D,RICHFIELD,MILLWOODS ROAD-36 AVE,53.47026464,-113.4558261,0.072372685185185,10d 06:00:00,20d 14:45:00,1,neighbourhood,,B1
2640.0_1_B1,,D,LARKSPUR,WEST OF 24 ST: BETWEEN 38 & 43A AVE,53.47847993,-113.3811779,0.07005787037037,10d 06:00:00,20d 14:45:00,1,neighbourhood,,B1
2642.0_1_B1,,D,MAPLE RIDGE INDUSTRIAL,66 AVE - 3 ST,53.5028667,-113.3485284,0.079166666666667,10d 06:00:00,20d 14:45:00,1,neighbourhood,,B1
2662.0_1_B1,,D,HILLVIEW,38 AVE-58 ST,53.46988154,-113.4269172,0.077766203703704,10d 06:00:00,20d 14:45:00,1,neighbourhood,,B1
2683.0_1_B1,,D,MEYONOHK,ES 91 ST BTWN 23 - 28 AVE,53.45531632,-113.4657287,0.0625,10d 06:00:00,20d 14:45:00,1,roadway,,B1
2705.0_1_B1,,D,WEINLOS,SOUTH SIDE 34 AVE BTWN 50 ST-MILLWOODS RD E,53.46433258,-113.4123796,0.005,10d 06:00:00,20d 14:45:00,1,roadway,,B1
2846.0_1_B1,,D,DAVIES INDUSTRIAL EAST,S/S SH PK FREEWAY: OVERPASS - 50 ST(34 St to 50 St),53.51414833,-113.4213001,0.019606481481482,10d 06:00:00,20d 14:45:00,1,roadway,,B1
2860.0_1_B1,,D,RITCHIE,97 ST-75 AVE,53.51080315,-113.4810636,0.00599537037037,10d 06:00:00,20d 14:45:00,1,neighbourhood,,B1
2913.0_1_B1,,D,TAWA,SOUTH SIDE/C 28 AVE BTWN 66-50 ST,53.45914321,-113.4262274,0.00625,10d 06:00:00,20d 14:45:00,1,roadway,,B1
2914.0_1_B1,,D,KAMEYOSEK,N/S 28 AVE: LAKEWOOD RD E - 66 ST,53.45858925,-113.439506,0.003900462962963,10d 06:00:00,20d 14:45:00,1,roadway,,B1
2915.0_1_B1,,D,KAMEYOSEK,N.S. 28 AVE BTWN PIPELINE & 66 ST,53.45856711,-113.4369712,0.019421296296296,10d 06:00:00,20d 14:45:00,1,roadway,,B1
2921.0_1_B1,,D,BISSET,WEST OF 37 ST & NORTH OF 28 AVE,53.45907884,-113.3992562,0.007858796296296,10d 06:00:00,20d 14:45:00,1,neighbourhood,,B1
2955.0_1_B1,,D,TIPASKAN,ES 91 ST BTWN 28 & 34 AVE,53.4619236,-113.465737,0.072916666666667,10d 06:00:00,20d 14:45:00,1,roadway,,B1
2973.0_1_B1,,D,MORRIS INDUSTRIAL,BTWN 75 & 34 ST INCLUDING 82 AVE - 71 ST,53.51591628,-113.4046955,0.060439814814815,10d 06:00:00,20d 14:45:00,1,roadway,,B1
2985.0_1_B1,,D,CORONET ADDITION INDUSTRIAL,E/S & C 91 ST: -BTWN 58 & 63 AVE,53.49343282,-113.4670906,0.014375,10d 06:00:00,20d 14:45:00,1,roadway,,B1
3041.0_1_B1,,D,KINISKI GARDENS,38 ST - 34 ST & Whitemud Dr - Mill Creek Ravine,53.48179332,-113.4036836,0.09125,10d 06:00:00,20d 14:45:00,1,neighbourhood,,B1
3182.0_1_B1,,D,OTTEWELL,93A AVE-58 ST,53.52930644,-113.424802,0.129791666666667,10d 06:00:00,20d 14:45:00,1,neighbourhood,,B1
3196.0_1_B1,,D,MILL WOODS PARK,SOUTH SIDE/C 23AVE BTWN MILLWOODS RD and 66 ST,53.45344629,-113.4413081,0.019375,10d 06:00:00,20d 14:45:00,1,roadway,,B1
3276.0_1_B1,,D,TAWA,EAST SIDE/C 50 ST BTWN 23-34 AVE,53.45966866,-113.4205523,0.025,10d 06:00:00,20d 14:45:00,1,roadway,,B1
3287.0_1_B1,,D,CRAWFORD PLAINS,East side 50st 11-13ave,53.44112172,-113.4182118,0.006203703703704,10d 06:00:00,20d 14:45:00,1,roadway,,B1
3313.0_1_B1,,D,SUMMERSIDE,Summerside Dr - 88 St,53.42007251,-113.4639724,0.131168981481481,10d 06:00:00,20d 14:45:00,1,neighbourhood,,B1
3359.0_1_B1,,D,CORONET ADDITION INDUSTRIAL,E/S & C 91 ST: 61 AVE - 63 AVE,53.4984472,-113.4671808,0.005914351851852,10d 06:00:00,20d 14:45:00,1,roadway,,B1
3360.0_1_B1,,D,GIRARD INDUSTRIAL,BTWN 75 & 34 ST INCLUDING 82 AVE - 71 ST,53.5157866,-113.4302362,0.052974537037037,10d 06:00:00,20d 14:45:00,1,roadway,,B1
3368.0_1_B1,,D,ELLERSLIE,Edwards Drive-Easton Road-6 Ave SW,53.4282547,-113.4648048,0.00431712962963,10d 06:00:00,20d 14:45:00,1,neighbourhood,,B1
3377.0_1_B1,,D,CRAWFORD PLAINS,12 AVE-41 ST,53.44155176,-113.4052089,0.095196759259259,10d 06:00:00,20d 14:45:00,1,neighbourhood,,B1
3399.0_1_B1,,D,SAKAW,EAST SIDE 66 ST BTWN 10 AVE-MILLWOODS R,53.44216099,-113.4385006,0.046875,10d 06:00:00,20d 14:45:00,1,roadway,,B1
3400.0_1_B1,,D,MEYOKUMIN,19A AVE-57 ST/Millwoods road -56-62 ST,53.44818909,-113.4285355,0.0890625,10d 06:00:00,20d 14:45:00,1,neighbourhood,,B1
3416.0_1_B1,,D,MEYOKUMIN,E/S & C 66 ST: MILLWOODS RD S - 23 AVE,53.44906998,-113.4354028,0.026458333333333,10d 06:00:00,20d 14:45:00,1,roadway,,B1
3432.0_1_B1,,D,MILL WOODS GOLF COURSE,EAST SIDE/C 50 ST-BTWN 40 AVE-WHITEMUD,53.48054226,-113.417776,0.02375,10d 06:00:00,20d 14:45:00,1,roadway,,B1
3434.0_1_B1,,D,ELLERSLIE,319 - 83 St SW,53.42943466,-113.4581559,0.108020833333333,10d 06:00:00,20d 14:45:00,1,neighbourhood,,B1
3472.0_1_B1,,D,ANTHONY HENDAY SOUTHEAST,WEST SIDE 66 ST BTWN 10 AVE-MILLWOODS,53.44073551,-113.4401323,0.005833333333333,10d 06:00:00,20d 14:45:00,1,roadway,,B1
3492.0_1_B1,,D,BISSET,N/S 23 AVE: 38 ST - 34 ST,53.45401563,-113.3968153,0.007291666666667,10d 06:00:00,20d 14:45:00,1,roadway,,B1
3517.0_1_B1,,D,BISSET,SOUTH SIDE 34 AVE-BTWN-MILLWOODS RD E-34 St,53.46363994,-113.4001809,0.017916666666667,10d 06:00:00,20d 14:45:00,1,roadway,,B1
3542.0_1_B1,,D,LEE RIDGE,WS 66 ST: 34 AVE - 38 AVE,53.46988496,-113.438231,0.006921296296296,10d 06:00:00,20d 14:45:00,1,roadway,,B1
3559.0_1_B1,,D,KINISKI GARDENS,38 ST-BTWN 38-41 AVE,53.47481221,-113.4007496,0.114849537037037,10d 06:00:00,20d 14:45:00,1,neighbourhood,,B1
3596.0_1_B1,,D,STRATHCONA INDUSTRIAL PARK,WS/C 91 ST BTWM 39 AVE & WHITEMUD DRIVE,53.47761346,-113.4671558,0.055833333333333,10d 06:00:00,20d 14:45:00,1,roadway,,B1
3611.0_1_B1,,D,TERRACE HEIGHTS,98-101 AVE-64-67 ST,53.53949827,-113.4305311,0.07068287037037,10d 06:00:00,20d 14:45:00,1,neighbourhood,,B1
3618.0_1_B1,,D,STRATHEARN,95 AVE-90 ST,53.53239598,-113.4645996,0.016458333333333,10d 06:00:00,20d 14:45:00,1,neighbourhood,,B1
3646.0_1_B1,,D,TAWA,58 ST & YOUVILLE DR EAST TO POLICE STATI,53.46235135,-113.4255351,0.146666666666667,10d 06:00:00,20d 14:45:00,1,neighbourhood,,B1
3647.0_1_B1,,D,MILL WOODS TOWN CENTRE,55 ST-BTWN 28 AVE-25 AVE,53.45759036,-113.4246402,0.044375,10d 06:00:00,20d 14:45:00,1,neighbourhood,,B1
3666.0_1_B1,,D,ELLERSLIE,North of Edwards Drive SW & East of 91 St SW,53.43105561,-113.4669521,0.008773148148148,10d 06:00:00,20d 14:45:00,1,neighbourhood,,B1
3667.0_1_B1,,D,ELLERSLIE,East of 88 St SW & South of 6 Ave SW,53.42618572,-113.466953,0.010810185185185,10d 06:00:00,20d 14:45:00,1,neighbourhood,,B1
3705.0_1_B1,,D,SUMMERSIDE,Ellerslie Road & 91 St SW,53.42400853,-113.4711774,0.0125,10d 06:00:00,20d 14:45:00,1,neighbourhood,,B1
3706.0_1_B1,,D,ELLERSLIE INDUSTRIAL,S/S Ellerslie Road: Parsons Rd - 91 St,53.424915,-113.4765264,0.009375,10d 06:00:00,20d 14:45:00,1,roadway,,B1
3707.0_1_B1,,D,SUMMERSIDE,S/S Ellerslie Road: 91 St - 78 St,53.42474573,-113.4597029,0.020833333333333,10d 06:00:00,20d 14:45:00,1,roadway,,B1
3767.0_1_B1,,D,OTTEWELL,98 AVE BETWEEN 50 ST & 57 ST,53.537579,-113.4201912,0.006770833333333,10d 06:00:00,20d 14:45:00,1,neighbourhood,,B1
3780.0_1_B1,,D,MICHAELS PARK,WEST SIDE 66 ST BTWN 38 AVE-WHITEMUD D,53.47769273,-113.4412082,0.005208333333333,10d 06:00:00,20d 14:45:00,1,roadway,,B1
3820.0_1_B1,,D,WILD ROSE,38 AVE & 17 ST,53.47633057,-113.3704977,0.003958333333333,10d 06:00:00,20d 14:45:00,1,neighbourhood,,B1
3846.0_1_B1,,D,MICHAELS PARK,BTWN MILLBOURNE RD E-66 ST,53.47997797,-113.4441735,0.00755787037037,10d 06:00:00,20d 14:45:00,1,neighbourhood,,B1
3883.0_1_B1,,D,TAWA,E/S & C 66 ST: 28 AVE - 34 AVE,53.46287218,-113.4348846,0.005,10d 06:00:00,20d 14:45:00,1,roadway,,B1
3897.0_1_B1,,D,WILD ROSE,WEST OF 23 ST: 38 AVE - 37A AVE,53.4739436,-113.3811523,0.042650462962963,10d 06:00:00,20d 14:45:00,1,neighbourhood,,B1
3907.0_1_B1,,D,KINISKI GARDENS,W/S & C 34 St: 38 Ave South to Ravine,53.46893081,-113.3939601,0.028020833333333,10d 06:00:00,20d 14:45:00,1,roadway,,B1
3921.0_1_B1,,D,MILL WOODS GOLF COURSE,EAST SIDE/C 66 ST: 38 AVE-WHITEMUD DRIVE,53.47947008,-113.4412674,0.027083333333333,10d 06:00:00,20d 14:45:00,1,roadway,,B1
3951.0_1_B1,,D,KINISKI GARDENS,W/S 34 ST: WHITEMUD DR - 38 AVE,53.4802683,-113.3939614,0.020833333333333,10d 06:00:00,20d 14:45:00,1,roadway,,B1
3955.0_1_B1,,D,WILD ROSE,East of 28 St & South of 37A Ave,53.46962439,-113.3812609,0.0065625,10d 06:00:00,20d 14:45:00,1,neighbourhood,,B1
3958.0_1_B1,,D,FOREST HEIGHTS,80 ST-S OF 101 AVE,53.53927859,-113.4508733,0.041666666666667,10d 06:00:00,20d 14:45:00,1,neighbourhood,,B1
3959.0_1_B1,,D,EASTGATE BUSINESS PARK,E/S & C 50 ST: 92 AVE - 101 AVE,53.53249873,-113.4183825,0.042708333333333,10d 06:00:00,20d 14:45:00,1,neighbourhood,,B1
3974_0_1_B1,,D,SOUTHEAST INDUSTRIAL,17 ST-66 AVE,53.50154929,-113.3675824,0.06431712962963,13d 06:00:00,13d 14:45:00,1,neighbourhood,,B1
3974_1_1_B1,,D,SOUTHEAST INDUSTRIAL,17 ST-66 AVE,53.50154929,-113.3675824,0.06431712962963,13d 06:00:00,13d 14:45:00,1,neighbourhood,,B1
3974_2_1_B1,,D,SOUTHEAST INDUSTRIAL,17 ST-66 AVE,53.50154929,-113.3675824,0.06431712962963,13d 06:00:00,13d 14:45:00,1,neighbourhood,,B1
3977.0_1_B1,,D,GREENVIEW,WEST SIDE 50 ST BTWN 38-40 AVE,53.4731319,-113.4160265,0.008333333333333,10d 06:00:00,20d 14:45:00,1,roadway,,B1
3996.0_1_B1,,D,LEE RIDGE,MILLBOURNE RD E-LEE RIDGE RD,53.47100097,-113.4468918,0.104166666666667,10d 06:00:00,20d 14:45:00,1,neighbourhood,,B1
4010.0_1_B1,,D,IDYLWYLDE,N/S & C 90 AVE: 75 ST - 85 ST,53.52534617,-113.4499205,0.011608796296296,10d 06:00:00,20d 14:45:00,1,neighbourhood,,B1
4011_0_1_B1,,D,OTTEWELL,67A ST-93A AVE,53.53125177,-113.4270686,0.076388888888889,14d 06:00:00,14d 14:45:00,1,neighbourhood,,B1
4011_1_1_B1,,D,OTTEWELL,67A ST-93A AVE,53.53125177,-113.4270686,0.076388888888889,14d 06:00:00,14d 14:45:00,1,neighbourhood,,B1
4011_2_1_B1,,D,OTTEWELL,67A ST-93A AVE,53.53125177,-113.4270686,0.076388888888889,14d 06:00:00,14d 14:45:00,1,neighbourhood,,B1
4013.0_1_B1,,D,ELLERSLIE,67 ST - 6 AVE SW,53.42720319,-113.447899,0.0625,10d 06:00:00,20d 14:45:00,1,neighbourhood,,B1
4034.0_1_B1,,D,MINCHAU,EAST SIDE/C 50 ST 38 - 40 AVE,53.47302522,-113.4155722,0.011747685185185,10d 06:00:00,20d 14:45:00,1,roadway,,B1
4035.0_1_B1,,D,GREENVIEW,79 AVE-87 ST,53.51411138,-113.4595635,0.046979166666667,10d 06:00:00,20d 14:45:00,1,neighbourhood,,B1
4043.0_1_B1,,D,PAPASCHASE INDUSTRIAL,79 ST-94 AVE,53.53148454,-113.4508368,0.111018518518519,10d 06:00:00,20d 14:45:00,1,neighbourhood,,B1
4045_0_1_B1,,D,OTTEWELL,17 Ave-18A Ave & 48 St-Mill Woods Road East,53.44749477,-113.4080485,0.072550154320988,14d 06:00:00,14d 14:45:00,1,neighbourhood,,B1
4045_1_1_B1,,D,OTTEWELL,17 Ave-18A Ave & 48 St-Mill Woods Road East,53.44749477,-113.4080485,0.072550154320988,14d 06:00:00,14d 14:45:00,1,neighbourhood,,B1
4045_2_1_B1,,D,OTTEWELL,17 Ave-18A Ave & 48 St-Mill Woods Road East,53.44749477,-113.4080485,0.072550154320988,14d 06:00:00,14d 14:45:00,1,neighbourhood,,B1
4048.0_1_B1,,D,DALY GROVE,1888 - 37 ST,53.44873644,-113.4006682,0.102337962962963,10d 06:00:00,20d 14:45:00,1,neighbourhood,,B1
4075.0_1_B1,,D,OTTEWELL,W/S 50 ST: 90 AVE - 101 AVE,53.52949572,-113.4189642,0.005625,10d 06:00:00,20d 14:45:00,1,neighbourhood,,B1
4081.0_1_B1,,D,SATOO,SOUTH SIDE&C 23 AVE-BTWN 85 ST-MILLWOO,53.45243671,-113.4541011,0.022291666666667,10d 06:00:00,20d 14:45:00,1,roadway,,B1
4087.0_1_B1,,D,CORONET INDUSTRIAL,91 ST BTWN 51 & 54 AVE,53.48984947,-113.4670316,0.016666666666667,10d 06:00:00,20d 14:45:00,1,roadway,,B1
4122_0_1_B1,,D,LARKSPUR,43A AVE: 27 - 30 ST,53.47978351,-113.3847698,0.066253858024691,14d 06:00:00,14d 14:45:00,1,neighbourhood,,B1
4122_1_1_B1,,D,LARKSPUR,43A AVE: 27 - 30 ST,53.47978351,-113.3847698,0.066253858024691,14d 06:00:00,14d 14:45:00,1,neighbourhood,,B1
4122_2_1_B1,,D,LARKSPUR,43A AVE: 27 - 30 ST,53.47978351,-113.3847698,0.066253858024691,14d 06:00:00,14d 14:45:00,1,neighbourhood,,B1
4123.0_1_B1,,D,BONNIE DOON,91 ST-86 AVE,53.5227385,-113.4689726,0.007337962962963,10d 06:00:00,20d 14:45:00,1,neighbourhood,,B1
4165.0_1_B1,,D,WILD ROSE,23 ST & 37A AVE,53.47135276,-113.3787691,0.098229166666667,10d 06:00:00,20d 14:45:00,1,neighbourhood,,B1
4177.0_1_B1,,D,TWEDDLE PLACE,Millbourned Road West & 40 Ave,53.47576909,-113.4545088,0.043391203703704,10d 06:00:00,20d 14:45:00,1,neighbourhood,,B1
4186.0_1_B1,,D,JACKSON HEIGHTS,JAMHA ROAD & JACKSON ROAD,53.48343111,-113.4072579,0.053032407407407,10d 06:00:00,20d 14:45:00,1,neighbourhood,,B1
4198.0_1_B1,,D,FOREST HEIGHTS,79 ST-98 AVE,53.53804707,-113.4470586,0.043125,10d 06:00:00,20d 14:45:00,1,neighbourhood,,B1
4204.0_1_B1,,D,TAWA,SOUTH SIDE/C 34 AVE-BTWN-66-50 ST,53.46524425,-113.4282146,0.020833333333333,10d 06:00:00,20d 14:45:00,1,roadway,,B1
4221.0_1_B1,,D,KAMEYOSEK,WEST SIDE 66 ST BTWN 28-34 AVE,53.46307087,-113.4353435,0.005,10d 06:00:00,20d 14:45:00,1,roadway,,B1
4259.0_1_B1,,D,KINISKI GARDENS,44 ST-39 AVE,53.47452958,-113.4056587,0.00869212962963,10d 06:00:00,20d 14:45:00,1,neighbourhood,,B1
4260.0_1_B1,,D,WEINLOS,W/S MILL WOODS RD EAST: 23 AVE - 34 AVE,53.4598939,-113.4075201,0.02587962962963,10d 06:00:00,20d 14:45:00,1,roadway,,B1
4261.0_1_B1,,D,CAPILANO,54 ST & 107A AVE,53.55571284,-113.4235434,0.104166666666667,10d 06:00:00,20d 14:45:00,1,neighbourhood,,B1
4262.0_1_B1,,D,OTTEWELL,WEST SIDE 50 ST-82-90 AVE,53.52051234,-113.4190959,0.013831018518519,10d 06:00:00,20d 14:45:00,1,neighbourhood,,B1
4267.0_1_B1,,D,BISSET,37 ST-33 AVE,53.46154834,-113.4005705,0.156087962962963,10d 06:00:00,20d 14:45:00,1,neighbourhood,,B1
4288.0_1_B1,,D,RIVER VALLEY GOLD BAR,NORTH SIDE OF 106 AVE: 74 ST - ROWLAND Rd,53.54958854,-113.4397842,0.00625,10d 06:00:00,20d 14:45:00,1,neighbourhood,,B1
4294.0_1_B1,,D,WEINLOS,48 ST & 28 AVE,53.46097016,-113.4141569,0.125555555555556,10d 06:00:00,20d 14:45:00,1,neighbourhood,,B1
4308.0_1_B1,,D,KENILWORTH,86 AVE-68A ST,53.51979663,-113.4305139,0.054583333333333,10d 06:00:00,20d 14:45:00,1,neighbourhood,,B1
4328.0_1_B1,,D,MEYONOHK,79 ST-LAKEWOOD RD S,53.45529188,-113.4558291,0.087337962962963,10d 06:00:00,20d 14:45:00,1,neighbourhood,,B1
4331.0_1_B1,,D,ELLERSLIE,EAST OF 75 ST SW & NORTH OF 7 AVE SW,53.42781177,-113.44932,0.010231481481482,10d 06:00:00,20d 14:45:00,1,neighbourhood,,B1
4341.0_1_B1,,D,KINISKI GARDENS,41 AVE-41 ST,53.47838217,-113.4062629,0.13755787037037,10d 06:00:00,20d 14:45:00,1,neighbourhood,,B1
4344.0_1_B1,,D,BISSET,W/S & C 34 St: 34 Ave - 23 Ave,53.45868909,-113.3941215,0.06,10d 06:00:00,20d 14:45:00,1,roadway,,B1
4362.0_1_B1,,D,GREENVIEW,50-54 ST & 38-39 A AVE,53.47265947,-113.4182492,0.004710648148148,10d 06:00:00,20d 14:45:00,1,neighbourhood,,B1
4365.0_1_B1,,D,RICHFIELD,SOUTH SIDE/C 34 AVE-91 ST-MILLWOODS RD,53.46504899,-113.4592898,0.01806712962963,10d 06:00:00,20d 14:45:00,1,roadway,,B1
4396.0_1_B1,,D,OTTEWELL,E/S & C 50 ST: 90 AVE - 92 AVE,53.52476798,-113.4186068,0.003541666666667,10d 06:00:00,20d 14:45:00,1,neighbourhood,,B1
4398.0_1_B1,,D,SOUTHEAST INDUSTRIAL,17 St - 68 Ave,53.50519941,-113.3651641,0.079849537037037,10d 06:00:00,20d 14:45:00,1,neighbourhood,,B1
4415.0_1_B1,,D,SILVER BERRY,East of 30 St: 33 Ave - 23 Ave,53.45963731,-113.3817214,0.095474537037037,10d 06:00:00,20d 14:45:00,1,neighbourhood,,B1
4423.0_1_B1,,D,EKOTA,MW RD S-75 ST/ES OF SCHOOL,53.44656424,-113.4479371,0.016921296296296,10d 06:00:00,20d 14:45:00,1,neighbourhood,,B1
4427.0_1_B1,,D,KAMEYOSEK,LAKEWOOD RD E - 31 AVE,53.46125892,-113.4432301,0.101273148148148,10d 06:00:00,20d 14:45:00,1,neighbourhood,,B1
4439.0_1_B1,,D,GAINER INDUSTRIAL,82 AVE-71 ST,53.5179328,-113.4379913,0.005416666666667,10d 06:00:00,20d 14:45:00,1,roadway,,B1
4443.0_1_B1,,D,PARSONS INDUSTRIAL,28 Ave: Parsons Road (99 St) - 91 St,53.45879988,-113.475642,0.030625,10d 06:00:00,20d 14:45:00,1,roadway,,B1
4452.0_1_B1,,D,LAMBTON INDUSTRIAL,E/S & C 50 ST: 82 - 90 AVE,53.51956079,-113.4183455,0.007916666666667,10d 06:00:00,20d 14:45:00,1,neighbourhood,,B1
4471.0_1_B1,,D,TAMARACK,Tamarack Green - 12 St,53.46908585,-113.3606443,0.143125,10d 06:00:00,20d 14:45:00,1,neighbourhood,,B1
4482.0_1_B1,,D,POLLARD MEADOWS,E/S & C 50 St: Mill Woods Road South - 23 Ave,53.44998974,-113.4193237,0.039583333333333,10d 06:00:00,20d 14:45:00,1,roadway,,B1
4483.0_1_B1,,D,MINCHAU,EAST SIDE/C 50 ST BTWN 34 & 38 AVE,53.46759607,-113.4181133,0.014872685185185,10d 06:00:00,20d 14:45:00,1,roadway,,B1
4485.0_1_B1,,D,LEE RIDGE,E/S & C 66 ST: 34 AVE - 38 AVE,53.46980168,-113.4376774,0.020833333333333,10d 06:00:00,20d 14:45:00,1,roadway,,B1
4522.0_1_B1,,D,TERRACE HEIGHTS,68 ST-100 AVE,53.53949524,-113.435579,0.006122685185185,10d 06:00:00,20d 14:45:00,1,neighbourhood,,B1
4529.0_1_B1,,D,ELLERSLIE INDUSTRIAL,Ellerslie Rd:101 St-91 St & Parsons Rd:N of Ellersli,53.42624096,-113.4829633,0.033333333333333,10d 06:00:00,20d 14:45:00,1,roadway,,B1
4531.0_1_B1,,D,CHARLESWORTH,66 St SW & 2 Ave SW,53.429125,-113.4404401,0.022916666666667,10d 06:00:00,20d 14:45:00,1,neighbourhood,,B1
4532.0_1_B1,,D,WILD ROSE,3225 - 35 A Ave,53.46712332,-113.3923492,0.017175925925926,10d 06:00:00,20d 14:45:00,1,neighbourhood,,B1
4533.0_1_B1,,D,TAMARACK,East Side & Center 17 St: Whitemud Drive - 34 Av,53.4764141,-113.3685041,0.042083333333333,10d 06:00:00,20d 14:45:00,1,roadway,,B1
4538_0_1_B1,,D,GREENVIEW,38 AVE-58 ST,53.47530033,-113.427371,0.05929012345679,13d 06:00:00,13d 14:45:00,1,neighbourhood,,B1
4538_1_1_B1,,D,GREENVIEW,38 AVE-58 ST,53.47530033,-113.427371,0.05929012345679,13d 06:00:00,13d 14:45:00,1,neighbourhood,,B1
4538_2_1_B1,,D,GREENVIEW,38 AVE-58 ST,53.47530033,-113.427371,0.05929012345679,13d 06:00:00,13d 14:45:00,1,neighbourhood,,B1
4539.0_1_B1,,D,SILVER BERRY,3335 - 25 Street,53.465245,-113.3785316,0.049143518518519,10d 06:00:00,20d 14:45:00,1,neighbourhood,,B1
4543.0_1_B1,,D,CHARLESWORTH,ELLERSLIE ROAD-66 ST,53.42636695,-113.4405375,0.116666666666667,10d 06:00:00,20d 14:45:00,1,neighbourhood,,B1
4550.0_1_B1,,D,GAINER INDUSTRIAL,BTWN 75 & 34 ST INCLUDING 82 AVE - 71 ST,53.51408458,-113.4324145,0.00994212962963,10d 06:00:00,20d 14:45:00,1,roadway,,B1
4554.0_1_B1,,D,ELLERSLIE,66 St Ellerslie to 2 AVE,53.42793174,-113.4427959,0.015625,10d 06:00:00,20d 14:45:00,1,roadway,,B1
4556.0_1_B1,,D,FULTON PLACE,FULTON ROAD-103-104 AVE,53.54598543,-113.4250088,0.05755787037037,10d 06:00:00,20d 14:45:00,1,neighbourhood,,B1
4572.0_1_B1,,D,SATOO,KNOTTWOOD ROAD W-17 AVE,53.44613593,-113.4576249,0.064895833333333,10d 06:00:00,20d 14:45:00,1,neighbourhood,,B1
4576.0_1_B1,,D,OTTEWELL,94 AVE-OTTEWELL ROAD,53.53142729,-113.4372789,0.071273148148148,10d 06:00:00,20d 14:45:00,1,neighbourhood,,B1
4581.0_1_B1,,D,SUMMERSIDE,Savaryn Drive & Summerside Link,53.41291999,-113.4775009,0.056956018518519,10d 06:00:00,20d 14:45:00,1,neighbourhood,,B1
4583.0_1_B1,,D,OTTEWELL,S/S & C 98 AVE: 67A ST - TERRACE ROAD,53.53704906,-113.4293798,0.005752314814815,10d 06:00:00,20d 14:45:00,1,neighbourhood,,B1
4586.0_1_B1,,D,TERRACE HEIGHTS,67-70 ST-101-103 AVE,53.54272791,-113.432695,0.024537037037037,10d 06:00:00,20d 14:45:00,1,neighbourhood,,B1
4604.0_1_B1,,D,GOLD BAR,46 St & 106 Ave,53.54981941,-113.4141054,0.061655092592593,10d 06:00:00,20d 14:45:00,1,neighbourhood,,B1
4609.0_1_B1,,D,STRATHEARN,89 ST-95 AVE,53.5307297,-113.4620961,0.06,10d 06:00:00,20d 14:45:00,1,neighbourhood,,B1
4616.0_1_B1,,D,FOREST HEIGHTS,83 ST-100 AVE,53.53934181,-113.4556598,0.019791666666667,10d 06:00:00,20d 14:45:00,1,neighbourhood,,B1
4623.0_1_B1,,D,FULTON PLACE,104 AVE-62 ST,53.54797208,-113.4299653,0.054270833333333,10d 06:00:00,20d 14:45:00,1,neighbourhood,,B1
4625.0_1_B1,,D,RIVER VALLEY GOLD BAR,NE OF 79 ST-101 AVE,53.54312581,-113.44647,0.045,10d 06:00:00,20d 14:45:00,1,neighbourhood,,B1
4626.0_1_B1,,D,FOREST HEIGHTS,76 ST-105 AVE,53.54712329,-113.4437936,0.014791666666667,10d 06:00:00,20d 14:45:00,1,neighbourhood,,B1
4636.0_1_B1,,D,Roper Industrial,7004 McIntyre,53.49657781,-113.4349257,0.006018518518519,10d 06:00:00,20d 14:45:00,1,neighbourhood,,B1
4643.0_1_B1,,D,FOREST HEIGHTS,Wayne Gretzky Drive: 101 Ave - River,53.54981994,-113.4396051,0.080358796296296,10d 06:00:00,20d 14:45:00,1,neighbourhood,,B1
4644.0_1_B1,,D,ELLERSLIE,E/S 91 St: Edwards Drive - Easton Road,53.4289211,-113.4718033,0.006643518518519,10d 06:00:00,20d 14:45:00,1,roadway,,B1
4650.0_1_B1,,D,WEINLOS,N/S 23 AVE: 50ST - MILLWOODS RD E,53.45546733,-113.4144299,0.031458333333333,10d 06:00:00,20d 14:45:00,1,roadway,,B1
4651.0_1_B1,,D,FOREST HEIGHTS,7304 ROWLAND ROAD,53.55304255,-113.4392846,0.007291666666667,10d 06:00:00,20d 14:45:00,1,neighbourhood,,B1
4652.0_1_B1,,D,KING EDWARD PARK,S/S 82 AVE: 73-71 ST & 71 ST: 82-79 AVE,53.51742877,-113.4378236,0.007083333333333,10d 06:00:00,20d 14:45:00,1,roadway,,B1
4655.0_1_B1,,D,CLOVERDALE,98 AVE - 93 ST,53.53852272,-113.4712717,0.013287037037037,10d 06:00:00,20d 14:45:00,1,neighbourhood,,B1
994667.0_1_B1,,D,CLOVERDALE,9411 - 97 Avenue,53.53440614,-113.4725643,0.12662037037037,10d 06:00:00,20d 14:45:00,1,neighbourhood,,B1
4674.0_1_B1,,D,CHARLESWORTH,503 - 59 St SW (5805 - 3 AVE),53.42917856,-113.4315572,0.070833333333333,10d 06:00:00,20d 14:45:00,1,neighbourhood,,B1
4682.0_1_B1,,D,SILVER BERRY,South of 32 Ave & East of Silver Berry Road,53.46152714,-113.3758157,0.020578703703704,10d 06:00:00,20d 14:45:00,1,neighbourhood,,B1
4683.0_1_B1,,D,SILVER BERRY,31 Ave East of 30 St,53.46152891,-113.3794979,0.025729166666667,10d 06:00:00,20d 14:45:00,1,neighbourhood,,B1
4684.0_1_B1,,D,OTTEWELL,96A AVE-OTTEWELL ROAD,53.53412676,-113.4393086,0.03875,10d 06:00:00,20d 14:45:00,1,neighbourhood,,B1
4685.0_1_B1,,D,SUMMERSIDE,Sunset Blvd (70 St) - Ellerslie Rd,53.42394909,-113.4492492,0.03125,10d 06:00:00,20d 14:45:00,1,neighbourhood,,B1
4689.0_1_B1,,D,ELLERSLIE INDUSTRIAL,91 ST E/W Parsons Rd - 25 Avenue,53.41468495,-113.4813885,0.020833333333333,10d 06:00:00,20d 14:45:00,1,roadway,,B1
4708.0_1_B1,,D,WALKER,66 St SW & Ellerslie Road,53.42376245,-113.4408112,0.025,10d 06:00:00,20d 14:45:00,1,neighbourhood,,B1
4709.0_1_B1,,D,CHARLESWORTH,55 St SW & 3 Ave SW (5607 3 AVE),53.42802726,-113.4296006,0.008333333333333,10d 06:00:00,20d 14:45:00,1,neighbourhood,,B1
4725.0_1_B1,,D,SUMMERSIDE,70 St SW & 16 Ave SW - 21 Ave SW,53.41780384,-113.451045,0.116747685185185,10d 06:00:00,20d 14:45:00,1,neighbourhood,,B1
5321.0_1_B1,,D,Summerside,Orchards Gate SW & Orchards Dr SW,53.40736169,-113.4741846,0.019583333333333,10d 06:00:00,20d 14:45:00,1,neighbourhood,,B1
5323.0_1_B1,,D,SUMMERSIDE,25 Ave SW & Orchards Gate,53.40983397,-113.4709706,0.021481481481482,10d 06:00:00,20d 14:45:00,1,neighbourhood,,B1
5565.0_1_B1,,D,WILD ROSE,34 ave 21 st NW,53.46643817,-113.3751525,0.018599537037037,10d 06:00:00,20d 14:45:00,1,neighbourhood,,B1
5845.0_1_B1,,D,WALKER,66 St: 21 Ave SW to Ellerslie Rd,53.417599851,-113.442478953,0.029143518518519,10d 06:00:00,20d 14:45:00,1,roadway,,B1
6250.0_1_B1,,D,SUMMERSIDE,90 St & 23 Ave SW,53.41169516,-113.4724155,0.021412037037037,10d 06:00:00,20d 14:45:00,1,neighbourhood,,B1
6286.0_1_B1,,D,LAUREL,"East of 28 St, near 20 Ave NW",53.450518786,-113.381810411,0.091215277777778,10d 06:00:00,20d 14:45:00,1,neighbourhood,,B1
6306.0_1_B1,,D,PYLYPOW INDUSTRIAL,Roper Rd & 36 St,53.49648373,-113.3974274,0.104166666666667,10d 06:00:00,20d 14:45:00,1,neighbourhood,,B1
6827.0_1_B1,,D,SUMMERSIDE,Savaryn Drive and 22 Avenue SW,53.41464618,-113.4624041,0.143125,10d 06:00:00,20d 14:45:00,1,neighbourhood,,B1
6848.0_1_B1,,D,SUMMERSIDE,70 Street SW and 18 Avenue SW,53.41783449,-113.4492125,0.10806712962963,10d 06:00:00,20d 14:45:00,1,neighbourhood,,B1
7430.0_1_B1,,D,LAUREL,32 St & 16A Ave NW,53.44484975,-113.390003,0.052835648148148,10d 06:00:00,20d 14:45:00,1,neighbourhood,,B1
8287.0_1_B1,,D,Laurel,32 Street - 17A Avenue,53.44606634,-113.385804236,0.060381944444445,10d 06:00:00,20d 14:45:00,1,neighbourhood,,B1
8382.0_1_B1,,D,TAMARACK,Tamarack Blvd - 28 Avenue,53.459029552,-113.363658425,0.028321759259259,10d 06:00:00,20d 14:45:00,1,neighbourhood,,B1
8442.0_1_B1,,D,Laurel,32 St & 14 Ave,53.40568068,-113.4728549,0.010335648148148,10d 06:00:00,20d 14:45:00,1,neighbourhood,,B1
8443.0_1_B1,,D,Summerside,East of Crabapple Run SW from 4709 Crabapple Run SW to 4631 Crabapple Run SW,53.40568068,-113.4728549,0.007060185185185,10d 06:00:00,20d 14:45:00,1,neighbourhood,,B1
9146.0_1_B1,,D,SOUTHEAST INDUSTRIAL,51 Avenue East of 34 Street,53.4894329,-113.3920124,0.020185185185185,10d 06:00:00,20d 14:45:00,1,neighbourhood,,B1
9354.0_1_B1,,D,Cloverdale,98 AVE-CONNORS ROAD-99 ST,53.53407858,-113.483941,0.045891203703704,10d 06:00:00,20d 14:45:00,1,neighbourhood,,B1
2687_0_1_B1,,D,Bulyea Heights,#300 BULYEA ROAD,53.47339753,-113.574114,0.0671875,13d 06:00:00,13d 14:45:00,1,neighbourhood,,B1
2687_1_1_B1,,D,Bulyea Heights,#300 BULYEA ROAD,53.47339753,-113.574114,0.0671875,13d 06:00:00,13d 14:45:00,1,neighbourhood,,B1
2687_2_1_B1,,D,Bulyea Heights,#300 BULYEA ROAD,53.47339753,-113.574114,0.0671875,13d 06:00:00,13d 14:45:00,1,neighbourhood,,B1
75.0_1_B1,,D,Twin Brooks,09 AVE-111-113 ST,53.43955434,-113.5223116,0.011018518518519,10d 06:00:00,20d 14:45:00,1,neighbourhood,,B1
93.0_1_B1,,D,Terwilleger TOWNE,1053 Tory Road,53.45191419,-113.5734249,0.003668981481481,10d 06:00:00,20d 14:45:00,1,neighbourhood,,B1
152.0_1_B1,,D,MacEwan,Ellerslie Rd (9 Ave. SW) N. & S. side - (119 St.) to SCHOOL,53.42490752,-113.5327273,0.0375,10d 06:00:00,20d 14:45:00,1,neighbourhood,,B1
194.0_1_B1,,D,Falconer Heights,FALCONER Road- # 1401 FALCONER ROAD,53.46839614,-113.5912643,0.008252314814815,10d 06:00:00,20d 14:45:00,1,neighbourhood,,B1
208.0_1_B1,,D,Leger,#1003 Leger Boulevard & Rabbit Hill Road,53.4595878,-113.5675726,0.013981481481482,10d 06:00:00,20d 14:45:00,1,neighbourhood,,B1
336.0_1_B1,,D,Ramsey Heights,43 AVE-WHITEMUD ROAD,53.48307766,-113.5859012,0.004814814814815,10d 06:00:00,20d 14:45:00,1,neighbourhood,,B1
356.0_1_B1,,D,Ermineskin,29A AVE-104 ST,53.46059016,-113.4965017,0.013599537037037,10d 06:00:00,20d 14:45:00,1,neighbourhood,,B1
487.0_1_B1,,D,Haddow,1808 Haswell Way,53.45113302,-113.5995119,0.013796296296296,10d 06:00:00,20d 14:45:00,1,neighbourhood,,B1
536.0_1_B1,,D,Richford,9 Ave. - 110 St to 107 St.,53.42521698,-113.5090275,0.010416666666667,10d 06:00:00,20d 14:45:00,1,neighbourhood,,B1
559.0_1_B1,,D,Ramsey Heights,43 AVE-147A ST,53.47916891,-113.5760812,0.008148148148148,10d 06:00:00,20d 14:45:00,1,neighbourhood,,B1
571.0_1_B1,,D,Haddow,1572 Hector Road,53.45870501,-113.6051601,0.004166666666667,10d 06:00:00,20d 14:45:00,1,neighbourhood,,B1
649.0_1_B1,,D,Empire Park,111 ST: WHITEMUD DRIVE to 51 AVE,53.48532079,-113.5176727,0.023773148148148,10d 06:00:00,20d 14:45:00,1,neighbourhood,,B1
665.0_1_B1,,D,South Edmonton Common,E/S GATEWAY BLVD: 19 AVE - 15 AVE,53.444490589,-113.492194656,0.012708333333333,10d 06:00:00,20d 14:45:00,1,roadway,,B1
691.0_1_B1,,D,Windsor Park,89 AVE-118 ST,53.52514221,-113.5359495,0.01806712962963,10d 06:00:00,20d 14:45:00,1,neighbourhood,,B1
761.0_1_B1,,D,Terwilleger South,Rabbit Hill Road - #7005 South Terwilleger Drive,53.43804279,-113.5716399,0.019502314814815,10d 06:00:00,20d 14:45:00,1,neighbourhood,,B1
814.0_1_B1,,D,Royal Gardens,43 AVE:111 - 122 ST,53.47994354,-113.5290232,0.048645833333333,10d 06:00:00,20d 14:45:00,1,neighbourhood,,B1
882.0_1_B1,,D,Carter Crest,Terwillegar Drive - 156 St,53.46162335,-113.5889866,0.005856481481481,10d 06:00:00,20d 14:45:00,1,roadway,,B1
909.0_1_B1,,D,Carter Crest,203 Carmichael CL-#1160 to #1074 Carter Crest Rd.,53.46483969,-113.5767544,0.011331018518519,10d 06:00:00,20d 14:45:00,1,neighbourhood,,B1
950.0_1_B1,,D,Ogilvie Ridge,OGILVIE BLVD-OMAND DRIVE,53.46343815,-113.5630866,0.028854166666667,10d 06:00:00,20d 14:45:00,1,neighbourhood,,B1
982.0_1_B1,,D,Ogilvie Ridge,Rabbit Hill road to behind #229 Ockenden Placee,53.46164111,-113.566618,0.017939814814815,10d 06:00:00,20d 14:45:00,1,neighbourhood,,B1
1003.0_1_B1,,D,Haddow,1503 HASWELL CLOSE,53.45033688,-113.5981467,0.01224537037037,10d 06:00:00,20d 14:45:00,1,neighbourhood,,B1
1016.0_1_B1,,D,Rideau Park,South side - CPR TRACKS - 111 ST,53.481138124,-113.507437249,0.048310185185185,10d 06:00:00,20d 14:45:00,1,roadway,,B1
1042.0_1_B1,,D,MacEwan,from #484 MacEwan Road to #2733 Miles Place,53.42625235,-113.5373578,0.025625,10d 06:00:00,20d 14:45:00,1,neighbourhood,,B1
1095.0_1_B1,,D,Calgary Trail North,South side - CPR TRACKS - Gateway Blvd South,53.480068929,-113.494374941,0.007233796296296,10d 06:00:00,20d 14:45:00,1,roadway,,B1
1149.0_1_B1,,D,Duggan,Calgry Trail South - 34 Ave. to 42 Ave.,53.4715742,-113.4956654,0.066296296296296,10d 06:00:00,20d 14:45:00,1,neighbourhood,,B1
1150.0_1_B1,,D,Aspen Gardens,41A AVE - 123 ST,53.48048827,-113.5481724,0.033229166666667,10d 06:00:00,20d 14:45:00,1,neighbourhood,,B1
1183.0_1_B1,,D,Westbrook Estate,WESTBROOK DRIVE-124 ST,53.462898,-113.5440734,0.015833333333333,10d 06:00:00,20d 14:45:00,1,neighbourhood,,B1
1211.0_1_B1,,D,Brander Gardens,RIVERBEND ROAD-148 ST,53.49742958,-113.5742093,0.004583333333333,10d 06:00:00,20d 14:45:00,1,neighbourhood,,B1
1352.0_1_B1,,D,MacEwan,Btw. #646 & #616 & behind #616 & #710 McAllister Loop SW,53.43211931,-113.5213959,0.00630787037037,10d 06:00:00,20d 14:45:00,1,neighbourhood,,B1
1494.0_1_B1,,D,Blue Quill Estates,28-29 AVE-125-126 ST,53.45891079,-113.5467675,0.028668981481482,10d 06:00:00,20d 14:45:00,1,neighbourhood,,B1
1547.0_1_B1,,D,Duggan,3803-105 ST,53.47341421,-113.5000821,0.039583333333333,10d 06:00:00,20d 14:45:00,1,neighbourhood,,B1
1555.0_1_B1,,D,Terwilleger TOWNE,1084 Tory Road - #217 Tory Crescent to Rabbit Hill Rd..,53.45237812,-113.5670903,0.02900462962963,10d 06:00:00,20d 14:45:00,1,neighbourhood,,B1
